[
 {
   "SID": "1.000000000000000",
   "LON": "-3.180560000000000",
   "LAT": "55.936669999999900",
   "NAME": "EDINBURGH CAUSEWAYSIDE EXPRESS",
   "SUPERMARKET": "Tesco"
 },
 {
   "SID": "2.000000000000000",
   "LON": "-3.183580000000000",
   "LAT": "55.944929999999900",
   "NAME": "EDINBURGH METRO",
   "SUPERMARKET": "Tesco"
 },
 {
   "SID": "3.000000000000000",
   "LON": "-3.205180000000000",
   "LAT": "55.944440000000000",
   "NAME": "EDINBURGH EARL GREY STREET EXPRESS",
   "SUPERMARKET": "Tesco"
 },
 {
   "SID": "4.000000000000000",
   "LON": "-3.211400000000000",
   "LAT": "55.934399999999900",
   "NAME": "EDINBURGH BRUNTSFIELD METRO",
   "SUPERMARKET": "Tesco"
 },
 {
   "SID": "5.000000000000000",
   "LON": "-3.180140000000000",
   "LAT": "55.961440000000000",
   "NAME": "EDINBURGH LEITH WALK EXPRESS",
   "SUPERMARKET": "Tesco"
 },
 {
   "SID": "6.000000000000000",
   "LON": "-3.136810000000000",
   "LAT": "55.946210000000000",
   "NAME": "EDINBURGH EXPRESS",
   "SUPERMARKET": "Tesco"
 },
 {
   "SID": "7.000000000000000",
   "LON": "-3.197240000000000",
   "LAT": "55.962710000000000",
   "NAME": "EDINBURGH",
   "SUPERMARKET": "Tesco"
 },
 {
   "SID": "8.000000000000000",
   "LON": "-3.232990000000000",
   "LAT": "55.926580000000000",
   "NAME": "EDINBURGH CRAIGLOCKHART EXPRESS",
   "SUPERMARKET": "Tesco"
 },
 {
   "SID": "9.000000000000000",
   "LON": "-3.176300000000000",
   "LAT": "55.973799999999900",
   "NAME": "EDINBURGH GREAT JUNCTION STREET EXPRESS",
   "SUPERMARKET": "Tesco"
 },
 {
   "SID": "10.000000000000000",
   "LON": "-3.236840000000000",
   "LAT": "55.910460000000000",
   "NAME": "EDINBURGH COLINTON",
   "SUPERMARKET": "Tesco"
 },
 {
   "SID": "11.000000000000000",
   "LON": "-3.272690000000000",
   "LAT": "55.919220000000000",
   "NAME": "EDINBURGH WESTERHAILES",
   "SUPERMARKET": "Tesco"
 },
 {
   "SID": "12.000000000000000",
   "LON": "-3.292950000000000",
   "LAT": "55.941279999999900",
   "NAME": "EDINBURGH CORSTORPHINE EXTRA",
   "SUPERMARKET": "Tesco"
 },
 {
   "SID": "13.000000000000000",
   "LON": "-3.280280000000000",
   "LAT": "55.969149999999900",
   "NAME": "EDINBURGH DAVIDSON METRO",
   "SUPERMARKET": "Tesco"
 },
 {
   "SID": "14.000000000000000",
   "LON": "-3.055860000000000",
   "LAT": "55.940869999999900",
   "NAME": "MUSSELBURGH",
   "SUPERMARKET": "Tesco"
 },
 {
   "SID": "15.000000000000000",
   "LON": "-3.085140000000000",
   "LAT": "55.883060000000000",
   "NAME": "DALKEITH HARDENGREEN",
   "SUPERMARKET": "Tesco"
 },
 {
   "SID": "16.000000000000000",
   "LON": "-3.220680000000000",
   "LAT": "55.835070000000000",
   "NAME": "PENICUIK",
   "SUPERMARKET": "Tesco"
 },
 {
   "SID": "17.000000000000000",
   "LON": "-3.407100000000000",
   "LAT": "55.986969999999900",
   "NAME": "SOUTH QUEENSFERRY",
   "SUPERMARKET": "Tesco"
 },
 {
   "SID": "18.000000000000000",
   "LON": "-3.356950000000000",
   "LAT": "56.036819999999900",
   "NAME": "DUNFERMILINE DALGETY BAY METRO",
   "SUPERMARKET": "Tesco"
 },
 {
   "SID": "19.000000000000000",
   "LON": "-3.426230000000000",
   "LAT": "56.043469999999900",
   "NAME": "DUNFERMLINE ROSYTH METRO",
   "SUPERMARKET": "Tesco"
 },
 {
   "SID": "20.000000000000000",
   "LON": "-3.159600000000000",
   "LAT": "56.111420000000000",
   "NAME": "KIRKCALDY",
   "SUPERMARKET": "Tesco"
 },
 {
   "SID": "21.000000000000000",
   "LON": "-3.432850000000000",
   "LAT": "56.061669999999900",
   "NAME": "DUNFERMLINE",
   "SUPERMARKET": "Tesco"
 },
 {
   "SID": "22.000000000000000",
   "LON": "-3.261030000000000",
   "LAT": "56.144269999999900",
   "NAME": "CARDENDEN EXPRESS",
   "SUPERMARKET": "Tesco"
 },
 {
   "SID": "23.000000000000000",
   "LON": "-2.777710000000000",
   "LAT": "55.957110000000000",
   "NAME": "HADDINGTON",
   "SUPERMARKET": "Tesco"
 },
 {
   "SID": "24.000000000000000",
   "LON": "-3.594520000000000",
   "LAT": "55.977249999999900",
   "NAME": "LINLITHGOW METRO",
   "SUPERMARKET": "Tesco"
 },
 {
   "SID": "25.000000000000000",
   "LON": "-3.602700000000000",
   "LAT": "56.017319999999900",
   "NAME": "BO'NESS METRO",
   "SUPERMARKET": "Tesco"
 },
 {
   "SID": "26.000000000000000",
   "LON": "-3.621520000000000",
   "LAT": "55.893590000000000",
   "NAME": "BATHGATE BLACKBURN ROAD",
   "SUPERMARKET": "Tesco"
 },
 {
   "SID": "27.000000000000000",
   "LON": "-2.702740000000000",
   "LAT": "56.053300000000000",
   "NAME": "NORTH BERWICK",
   "SUPERMARKET": "Tesco"
 },
 {
   "SID": "28.000000000000000",
   "LON": "-3.721030000000000",
   "LAT": "56.017960000000000",
   "NAME": "GRANGEMOUTH METRO",
   "SUPERMARKET": "Tesco"
 },
 {
   "SID": "29.000000000000000",
   "LON": "-3.779540000000000",
   "LAT": "55.999090000000000",
   "NAME": "FALKIRK METRO",
   "SUPERMARKET": "Tesco"
 },
 {
   "SID": "30.000000000000000",
   "LON": "-3.779900000000000",
   "LAT": "56.003770000000000",
   "NAME": "FALKIRK GRAHAMS ROAD",
   "SUPERMARKET": "Tesco"
 },
 {
   "SID": "31.000000000000000",
   "LON": "-3.788400000000000",
   "LAT": "56.113750000000000",
   "NAME": "ALLOA EXTRA",
   "SUPERMARKET": "Tesco"
 },
 {
   "SID": "32.000000000000000",
   "LON": "-2.804940000000000",
   "LAT": "55.614069999999900",
   "NAME": "GALASHIELS EXTRA",
   "SUPERMARKET": "Tesco"
 },
 {
   "SID": "33.000000000000000",
   "LON": "-3.007200000000000",
   "LAT": "56.315629999999900",
   "NAME": "CUPAR",
   "SUPERMARKET": "Tesco"
 },
 {
   "SID": "34.000000000000000",
   "LON": "-3.777210000000000",
   "LAT": "55.674759999999900",
   "NAME": "LANARK GALLOWHILL ROAD",
   "SUPERMARKET": "Tesco"
 },
 {
   "SID": "35.000000000000000",
   "LON": "-3.927930000000000",
   "LAT": "55.776339999999900",
   "NAME": "WISHAW BELHAVEN EXTRA",
   "SUPERMARKET": "Tesco"
 },
 {
   "SID": "36.000000000000000",
   "LON": "-3.988860000000000",
   "LAT": "55.948210000000000",
   "NAME": "GLASGOW CUMBERNAULD TRYST ROAD EXTRA",
   "SUPERMARKET": "Tesco"
 },
 {
   "SID": "37.000000000000000",
   "LON": "-2.797590000000000",
   "LAT": "56.340110000000000",
   "NAME": "ST ANDREWS METRO",
   "SUPERMARKET": "Tesco"
 },
 {
   "SID": "38.000000000000000",
   "LON": "-3.937980000000000",
   "LAT": "56.123159999999900",
   "NAME": "STIRLING",
   "SUPERMARKET": "Tesco"
 },
 {
   "SID": "39.000000000000000",
   "LON": "-3.434320000000000",
   "LAT": "56.380569999999900",
   "NAME": "PERTH EDINBURGH ROAD",
   "SUPERMARKET": "Tesco"
 },
 {
   "SID": "40.000000000000000",
   "LON": "-4.022290000000000",
   "LAT": "55.955069999999900",
   "NAME": "GLASGOW CUMBERNAULD",
   "SUPERMARKET": "Tesco"
 },
 {
   "SID": "41.000000000000000",
   "LON": "-4.022340000000000",
   "LAT": "55.857419999999900",
   "NAME": "COATBRIDGE EXTRA",
   "SUPERMARKET": "Tesco"
 },
 {
   "SID": "42.000000000000000",
   "LON": "-3.430730000000000",
   "LAT": "56.395020000000000",
   "NAME": "PERTH METRO",
   "SUPERMARKET": "Tesco"
 },
 {
   "SID": "43.000000000000000",
   "LON": "-3.478580000000000",
   "LAT": "56.407750000000000",
   "NAME": "PERTH EXTRA",
   "SUPERMARKET": "Tesco"
 },
 {
   "SID": "44.000000000000000",
   "LON": "-3.966630000000000",
   "LAT": "56.186369999999900",
   "NAME": "DUNBLANE METRO",
   "SUPERMARKET": "Tesco"
 },
 {
   "SID": "45.000000000000000",
   "LON": "-4.039450000000000",
   "LAT": "55.770299999999900",
   "NAME": "HAMILTON EXPRESS",
   "SUPERMARKET": "Tesco"
 },
 {
   "SID": "46.000000000000000",
   "LON": "-2.971870000000000",
   "LAT": "56.455640000000000",
   "NAME": "DUNDEE",
   "SUPERMARKET": "Tesco"
 },
 {
   "SID": "47.000000000000000",
   "LON": "-2.969070000000000",
   "LAT": "56.463079999999900",
   "NAME": "DUNDEE METRO",
   "SUPERMARKET": "Tesco"
 },
 {
   "SID": "48.000000000000000",
   "LON": "-3.045380000000000",
   "LAT": "56.471290000000000",
   "NAME": "DUNDEE SOUTH ROAD",
   "SUPERMARKET": "Tesco"
 },
 {
   "SID": "49.000000000000000",
   "LON": "-3.008910000000000",
   "LAT": "56.473269999999900",
   "NAME": "DUNDEE LOCHEE",
   "SUPERMARKET": "Tesco"
 },
 {
   "SID": "50.000000000000000",
   "LON": "-4.157900000000000",
   "LAT": "55.939540000000000",
   "NAME": "KIRKINTILLOCH METRO",
   "SUPERMARKET": "Tesco"
 },
 {
   "SID": "51.000000000000000",
   "LON": "-4.133390000000000",
   "LAT": "55.808500000000000",
   "NAME": "CAMBUSLANG EXPRESS",
   "SUPERMARKET": "Tesco"
 },
 {
   "SID": "52.000000000000000",
   "LON": "-4.161530000000000",
   "LAT": "55.852879999999900",
   "NAME": "GLASGOW SHETTLESTON EXTRA",
   "SUPERMARKET": "Tesco"
 },
 {
   "SID": "53.000000000000000",
   "LON": "-2.993750000000000",
   "LAT": "56.482959999999900",
   "NAME": "DUNDEE EXTRA",
   "SUPERMARKET": "Tesco"
 },
 {
   "SID": "54.000000000000000",
   "LON": "-2.850850000000000",
   "LAT": "56.471640000000000",
   "NAME": "BROUGHTY FERRY DALHOUSIE EXPRESS",
   "SUPERMARKET": "Tesco"
 },
 {
   "SID": "55.000000000000000",
   "LON": "-2.817020000000000",
   "LAT": "56.481130000000000",
   "NAME": "DUNDEE MONIFIETH",
   "SUPERMARKET": "Tesco"
 },
 {
   "SID": "56.000000000000000",
   "LON": "-4.209160000000000",
   "LAT": "55.836069999999900",
   "NAME": "GLASGOW RUTHERGLEN EXTRA",
   "SUPERMARKET": "Tesco"
 },
 {
   "SID": "57.000000000000000",
   "LON": "-4.232760000000000",
   "LAT": "55.873500000000000",
   "NAME": "GLASGOW ST ROLLOX EXTRA",
   "SUPERMARKET": "Tesco"
 },
 {
   "SID": "58.000000000000000",
   "LON": "-4.247600000000000",
   "LAT": "55.859879999999900",
   "NAME": "GLASGOW COCHRANE SQUARE EXPRESS",
   "SUPERMARKET": "Tesco"
 },
 {
   "SID": "59.000000000000000",
   "LON": "-4.250420000000000",
   "LAT": "55.857959999999900",
   "NAME": "GLASGOW METRO",
   "SUPERMARKET": "Tesco"
 },
 {
   "SID": "60.000000000000000",
   "LON": "-4.264560000000000",
   "LAT": "55.859430000000000",
   "NAME": "GLASGOW ARGYLE STREET EXPRESS",
   "SUPERMARKET": "Tesco"
 },
 {
   "SID": "61.000000000000000",
   "LON": "-4.286510000000000",
   "LAT": "55.887250000000000",
   "NAME": "GLASGOW MARYHILL",
   "SUPERMARKET": "Tesco"
 },
 {
   "SID": "62.000000000000000",
   "LON": "-4.283900000000000",
   "LAT": "55.864800000000000",
   "NAME": "GLASGOW YORK HILL EXPRESS",
   "SUPERMARKET": "Tesco"
 },
 {
   "SID": "63.000000000000000",
   "LON": "-4.286340000000000",
   "LAT": "55.824590000000000",
   "NAME": "GLASGOW KILMARNOCK ROAD EXPRESS",
   "SUPERMARKET": "Tesco"
 },
 {
   "SID": "64.000000000000000",
   "LON": "-4.275720000000000",
   "LAT": "55.788939999999900",
   "NAME": "CLARKSTON EXPRESS",
   "SUPERMARKET": "Tesco"
 },
 {
   "SID": "65.000000000000000",
   "LON": "-4.315580000000000",
   "LAT": "55.939760000000000",
   "NAME": "GLASGOW MILNGAVIE",
   "SUPERMARKET": "Tesco"
 },
 {
   "SID": "66.000000000000000",
   "LON": "-4.222340000000000",
   "LAT": "56.245030000000000",
   "NAME": "CALLANDER EXPRESS",
   "SUPERMARKET": "Tesco"
 },
 {
   "SID": "67.000000000000000",
   "LON": "-3.336210000000000",
   "LAT": "56.590919999999900",
   "NAME": "BLAIRGOWRIE WELTON",
   "SUPERMARKET": "Tesco"
 },
 {
   "SID": "68.000000000000000",
   "LON": "-4.342040000000000",
   "LAT": "55.822899999999900",
   "NAME": "GLASGOW SILVERBURN EXTRA",
   "SUPERMARKET": "Tesco"
 },
 {
   "SID": "69.000000000000000",
   "LON": "-4.384900000000000",
   "LAT": "55.867640000000000",
   "NAME": "RENFREW",
   "SUPERMARKET": "Tesco"
 },
 {
   "SID": "70.000000000000000",
   "LON": "-4.398510000000000",
   "LAT": "55.797530000000000",
   "NAME": "GLASGOW BARRHEAD",
   "SUPERMARKET": "Tesco"
 },
 {
   "SID": "71.000000000000000",
   "LON": "-2.888400000000000",
   "LAT": "56.647700000000000",
   "NAME": "FORFAR CASTLE STREET",
   "SUPERMARKET": "Tesco"
 },
 {
   "SID": "72.000000000000000",
   "LON": "-4.289600000000000",
   "LAT": "55.465550000000000",
   "NAME": "CUMNOCK AUCHINLECK",
   "SUPERMARKET": "Tesco"
 },
 {
   "SID": "73.000000000000000",
   "LON": "-4.482740000000000",
   "LAT": "55.630690000000000",
   "NAME": "KILMARNOCK GLASGOW ROAD",
   "SUPERMARKET": "Tesco"
 },
 {
   "SID": "74.000000000000000",
   "LON": "-4.496130000000000",
   "LAT": "55.606890000000000",
   "NAME": "KILMARNOCK FOWLDS STREET METRO",
   "SUPERMARKET": "Tesco"
 },
 {
   "SID": "75.000000000000000",
   "LON": "-3.354480000000000",
   "LAT": "55.122030000000000",
   "NAME": "LOCKERBIE",
   "SUPERMARKET": "Tesco"
 },
 {
   "SID": "76.000000000000000",
   "LON": "-4.691870000000000",
   "LAT": "55.936019999999900",
   "NAME": "PORT GLASGOW EXTRA",
   "SUPERMARKET": "Tesco"
 },
 {
   "SID": "77.000000000000000",
   "LON": "-2.660160000000000",
   "LAT": "56.734580000000000",
   "NAME": "BRECHIN EXPRESS",
   "SUPERMARKET": "Tesco"
 },
 {
   "SID": "78.000000000000000",
   "LON": "-4.683600000000000",
   "LAT": "55.756360000000000",
   "NAME": "KILBIRNIE",
   "SUPERMARKET": "Tesco"
 },
 {
   "SID": "79.000000000000000",
   "LON": "-4.724600000000000",
   "LAT": "56.001869999999900",
   "NAME": "HELENSBURGH EAST CLYDE EXPRESS",
   "SUPERMARKET": "Tesco"
 },
 {
   "SID": "80.000000000000000",
   "LON": "-2.470800000000000",
   "LAT": "56.711170000000000",
   "NAME": "MONTROSE",
   "SUPERMARKET": "Tesco"
 },
 {
   "SID": "81.000000000000000",
   "LON": "-4.733990000000000",
   "LAT": "56.003549999999900",
   "NAME": "HELENSBURGH METRO",
   "SUPERMARKET": "Tesco"
 },
 {
   "SID": "82.000000000000000",
   "LON": "-4.757850000000000",
   "LAT": "55.949730000000000",
   "NAME": "GREENOCK DALRYMPLE STREET",
   "SUPERMARKET": "Tesco"
 },
 {
   "SID": "83.000000000000000",
   "LON": "-3.627100000000000",
   "LAT": "55.076320000000000",
   "NAME": "DUMFRIES EXTRA",
   "SUPERMARKET": "Tesco"
 },
 {
   "SID": "84.000000000000000",
   "LON": "-4.672270000000000",
   "LAT": "55.607190000000000",
   "NAME": "IRVINE RIVERWAY EXTRA",
   "SUPERMARKET": "Tesco"
 },
 {
   "SID": "85.000000000000000",
   "LON": "-4.611320000000000",
   "LAT": "55.498489999999900",
   "NAME": "PRESTWICK MAIN STREET EXPRESS",
   "SUPERMARKET": "Tesco"
 },
 {
   "SID": "86.000000000000000",
   "LON": "-4.607450000000000",
   "LAT": "55.468020000000000",
   "NAME": "AYR EXTRA",
   "SUPERMARKET": "Tesco"
 },
 {
   "SID": "87.000000000000000",
   "LON": "-4.621110000000000",
   "LAT": "55.478589999999900",
   "NAME": "AYR EXPRESS",
   "SUPERMARKET": "Tesco"
 },
 {
   "SID": "88.000000000000000",
   "LON": "-4.775600000000000",
   "LAT": "55.641370000000000",
   "NAME": "SALTCOATS METRO",
   "SUPERMARKET": "Tesco"
 },
 {
   "SID": "89.000000000000000",
   "LON": "-2.935480000000000",
   "LAT": "54.892519999999900",
   "NAME": "CARLISLE VICTORIA VIADUCT METRO",
   "SUPERMARKET": "Tesco"
 },
 {
   "SID": "90.000000000000000",
   "LON": "-2.898610000000000",
   "LAT": "54.895490000000000",
   "NAME": "CARLISLE WARWICK ROAD",
   "SUPERMARKET": "Tesco"
 },
 {
   "SID": "91.000000000000000",
   "LON": "-3.924500000000000",
   "LAT": "54.946300000000000",
   "NAME": "CASTLE DOUGLAS",
   "SUPERMARKET": "Tesco"
 },
 {
   "SID": "92.000000000000000",
   "LON": "-2.098940000000000",
   "LAT": "54.972760000000000",
   "NAME": "HEXHAM EXTRA",
   "SUPERMARKET": "Tesco"
 },
 {
   "SID": "93.000000000000000",
   "LON": "-1.593830000000000",
   "LAT": "55.131110000000000",
   "NAME": "BEDLINGTON",
   "SUPERMARKET": "Tesco"
 },
 {
   "SID": "94.000000000000000",
   "LON": "-1.667570000000000",
   "LAT": "55.013930000000000",
   "NAME": "NEWCASTLE UPON TYNE EXTRA",
   "SUPERMARKET": "Tesco"
 },
 {
   "SID": "95.000000000000000",
   "LON": "-1.640780000000000",
   "LAT": "55.004109999999900",
   "NAME": "GOSFORTH EXPRESS",
   "SUPERMARKET": "Tesco"
 },
 {
   "SID": "96.000000000000000",
   "LON": "-1.661040000000000",
   "LAT": "54.976640000000000",
   "NAME": "FENHAM WEST ROAD EXPRESS",
   "SUPERMARKET": "Tesco"
 },
 {
   "SID": "97.000000000000000",
   "LON": "-1.578630000000000",
   "LAT": "55.007300000000000",
   "NAME": "NEWCASTLE UPON TYNE BENTON ROAD EXPRESS",
   "SUPERMARKET": "Tesco"
 },
 {
   "SID": "98.000000000000000",
   "LON": "-1.604750000000000",
   "LAT": "54.992359999999900",
   "NAME": "NEWCASTLE UPON TYNE JESMOND METRO",
   "SUPERMARKET": "Tesco"
 },
 {
   "SID": "99.000000000000000",
   "LON": "-1.743950000000000",
   "LAT": "54.919350000000000",
   "NAME": "ROWLANDS GILL METRO",
   "SUPERMARKET": "Tesco"
 },
 {
   "SID": "100.000000000000000",
   "LON": "-3.829430000000000",
   "LAT": "57.191160000000000",
   "NAME": "AVIEMORE METRO",
   "SUPERMARKET": "Tesco"
 },
 {
   "SID": "101.000000000000000",
   "LON": "-3.554160000000000",
   "LAT": "54.648370000000000",
   "NAME": "WORKINGTON",
   "SUPERMARKET": "Tesco"
 },
 {
   "SID": "102.000000000000000",
   "LON": "-2.278700000000000",
   "LAT": "57.148400000000000",
   "NAME": "WESTHILL",
   "SUPERMARKET": "Tesco"
 },
 {
   "SID": "103.000000000000000",
   "LON": "-1.604830000000000",
   "LAT": "54.970350000000000",
   "NAME": "NEWCASTLE UPON TYNE QUAYSIDE EXPRESS",
   "SUPERMARKET": "Tesco"
 },
 {
   "SID": "104.000000000000000",
   "LON": "-1.601890000000000",
   "LAT": "54.963760000000000",
   "NAME": "GATESHEAD",
   "SUPERMARKET": "Tesco"
 },
 {
   "SID": "105.000000000000000",
   "LON": "-1.824570000000000",
   "LAT": "54.846589999999900",
   "NAME": "CONSETT",
   "SUPERMARKET": "Tesco"
 },
 {
   "SID": "106.000000000000000",
   "LON": "-1.483660000000000",
   "LAT": "55.011130000000000",
   "NAME": "NORTH SHIELDS EXTRA",
   "SUPERMARKET": "Tesco"
 },
 {
   "SID": "107.000000000000000",
   "LON": "-1.468290000000000",
   "LAT": "55.015740000000000",
   "NAME": "NORTH SHIELDS BEACH ROAD EXPRESS",
   "SUPERMARKET": "Tesco"
 },
 {
   "SID": "108.000000000000000",
   "LON": "-1.738500000000000",
   "LAT": "54.859420000000000",
   "NAME": "STANLEY ANNFIELD PLAIN",
   "SUPERMARKET": "Tesco"
 },
 {
   "SID": "109.000000000000000",
   "LON": "-5.471060000000000",
   "LAT": "56.410570000000000",
   "NAME": "OBAN",
   "SUPERMARKET": "Tesco"
 },
 {
   "SID": "110.000000000000000",
   "LON": "-2.146350000000000",
   "LAT": "57.180000000000000",
   "NAME": "ABERDEEN EXTRA",
   "SUPERMARKET": "Tesco"
 },
 {
   "SID": "111.000000000000000",
   "LON": "-2.096740000000000",
   "LAT": "57.168010000000000",
   "NAME": "ABERDEEN PITTODRIE EXPRESS",
   "SUPERMARKET": "Tesco"
 },
 {
   "SID": "112.000000000000000",
   "LON": "-1.462730000000000",
   "LAT": "54.970700000000000",
   "NAME": "SOUTH SHIELDS",
   "SUPERMARKET": "Tesco"
 },
 {
   "SID": "113.000000000000000",
   "LON": "-2.186800000000000",
   "LAT": "57.198799999999900",
   "NAME": "DYCE EXPRESS",
   "SUPERMARKET": "Tesco"
 },
 {
   "SID": "114.000000000000000",
   "LON": "-5.108840000000000",
   "LAT": "56.818970000000000",
   "NAME": "FORT WILLIAM METRO",
   "SUPERMARKET": "Tesco"
 },
 {
   "SID": "115.000000000000000",
   "LON": "-3.590360000000000",
   "LAT": "54.552199999999900",
   "NAME": "WHITEHAVEN",
   "SUPERMARKET": "Tesco"
 },
 {
   "SID": "116.000000000000000",
   "LON": "-1.582480000000000",
   "LAT": "54.859479999999900",
   "NAME": "CHESTER-LE-STREET",
   "SUPERMARKET": "Tesco"
 },
 {
   "SID": "117.000000000000000",
   "LON": "-2.379980000000000",
   "LAT": "57.287939999999900",
   "NAME": "INVERURIE HARLAW ROAD",
   "SUPERMARKET": "Tesco"
 },
 {
   "SID": "118.000000000000000",
   "LON": "-1.384680000000000",
   "LAT": "54.905799999999900",
   "NAME": "SUNDERLAND METRO",
   "SUPERMARKET": "Tesco"
 },
 {
   "SID": "119.000000000000000",
   "LON": "-1.441000000000000",
   "LAT": "54.871099999999900",
   "NAME": "EAST HERRINGTON SILKSWORTH ROAD EXPRESS",
   "SUPERMARKET": "Tesco"
 },
 {
   "SID": "120.000000000000000",
   "LON": "-5.608390000000000",
   "LAT": "55.427610000000000",
   "NAME": "CAMPBELTOWN METRO",
   "SUPERMARKET": "Tesco"
 },
 {
   "SID": "121.000000000000000",
   "LON": "-5.025390000000000",
   "LAT": "54.904859999999900",
   "NAME": "STRANRAER METRO",
   "SUPERMARKET": "Tesco"
 },
 {
   "SID": "122.000000000000000",
   "LON": "-1.546790000000000",
   "LAT": "54.777760000000000",
   "NAME": "DURHAM EXTRA",
   "SUPERMARKET": "Tesco"
 },
 {
   "SID": "123.000000000000000",
   "LON": "-2.785600000000000",
   "LAT": "57.447600000000000",
   "NAME": "HUNTLY",
   "SUPERMARKET": "Tesco"
 },
 {
   "SID": "124.000000000000000",
   "LON": "-2.067320000000000",
   "LAT": "57.365630000000000",
   "NAME": "ELLON",
   "SUPERMARKET": "Tesco"
 },
 {
   "SID": "125.000000000000000",
   "LON": "-2.919930000000000",
   "LAT": "54.364080000000000",
   "NAME": "BOWNESS-ON-WINDERMERE EXPRESS",
   "SUPERMARKET": "Tesco"
 },
 {
   "SID": "126.000000000000000",
   "LON": "-1.571740000000000",
   "LAT": "54.620750000000000",
   "NAME": "NEWTON AYCLIFFE EXTRA",
   "SUPERMARKET": "Tesco"
 },
 {
   "SID": "127.000000000000000",
   "LON": "-2.954240000000000",
   "LAT": "57.542639999999900",
   "NAME": "KEITH METRO",
   "SUPERMARKET": "Tesco"
 },
 {
   "SID": "128.000000000000000",
   "LON": "-4.190950000000000",
   "LAT": "57.468969999999900",
   "NAME": "INVERNESS INSHES",
   "SUPERMARKET": "Tesco"
 },
 {
   "SID": "129.000000000000000",
   "LON": "-4.176960000000000",
   "LAT": "57.481479999999900",
   "NAME": "INVERNESS EXTRA",
   "SUPERMARKET": "Tesco"
 },
 {
   "SID": "130.000000000000000",
   "LON": "-4.231220000000000",
   "LAT": "57.476039999999900",
   "NAME": "INVERNESS METRO",
   "SUPERMARKET": "Tesco"
 },
 {
   "SID": "131.000000000000000",
   "LON": "-1.239720000000000",
   "LAT": "54.695950000000000",
   "NAME": "THROSTON GRANGE EXPRESS",
   "SUPERMARKET": "Tesco"
 },
 {
   "SID": "132.000000000000000",
   "LON": "-3.627090000000000",
   "LAT": "57.607680000000000",
   "NAME": "FORRES NAIRN ROAD",
   "SUPERMARKET": "Tesco"
 },
 {
   "SID": "133.000000000000000",
   "LON": "-1.218030000000000",
   "LAT": "54.665260000000000",
   "NAME": "HARTLEPOOL EXTRA",
   "SUPERMARKET": "Tesco"
 },
 {
   "SID": "134.000000000000000",
   "LON": "-1.233610000000000",
   "LAT": "54.655189999999900",
   "NAME": "HARTLEPOOL CATCOTE ROAD EXPRESS",
   "SUPERMARKET": "Tesco"
 },
 {
   "SID": "135.000000000000000",
   "LON": "-1.353280000000000",
   "LAT": "54.593190000000000",
   "NAME": "STOCKTON-ON-TEES EXTRA",
   "SUPERMARKET": "Tesco"
 },
 {
   "SID": "136.000000000000000",
   "LON": "-1.297170000000000",
   "LAT": "54.598900000000000",
   "NAME": "BILLINGHAM BYPASS EXPRESS",
   "SUPERMARKET": "Tesco"
 },
 {
   "SID": "137.000000000000000",
   "LON": "-3.319600000000000",
   "LAT": "57.649830000000000",
   "NAME": "ELGIN LOSSIE GREEN EXTRA",
   "SUPERMARKET": "Tesco"
 },
 {
   "SID": "138.000000000000000",
   "LON": "-1.279270000000000",
   "LAT": "54.606540000000000",
   "NAME": "BILLINGHAM",
   "SUPERMARKET": "Tesco"
 },
 {
   "SID": "139.000000000000000",
   "LON": "-1.310410000000000",
   "LAT": "54.586919999999900",
   "NAME": "NORTON EXPRESS",
   "SUPERMARKET": "Tesco"
 },
 {
   "SID": "140.000000000000000",
   "LON": "-1.248780000000000",
   "LAT": "54.568890000000000",
   "NAME": "MIDDLESBROUGH PARLIAMENT ROAD EXPRESS",
   "SUPERMARKET": "Tesco"
 },
 {
   "SID": "141.000000000000000",
   "LON": "-1.358530000000000",
   "LAT": "54.517930000000000",
   "NAME": "STOCKTON-ON-TEES YARM EAGLESCLIFFE",
   "SUPERMARKET": "Tesco"
 },
 {
   "SID": "142.000000000000000",
   "LON": "-1.246130000000000",
   "LAT": "54.558149999999900",
   "NAME": "MIDDLESBROUGH ROMAN ROAD EXPRESS",
   "SUPERMARKET": "Tesco"
 },
 {
   "SID": "143.000000000000000",
   "LON": "-2.521130000000000",
   "LAT": "57.664850000000000",
   "NAME": "BANFF METRO",
   "SUPERMARKET": "Tesco"
 },
 {
   "SID": "144.000000000000000",
   "LON": "-1.722950000000000",
   "LAT": "54.374789999999900",
   "NAME": "CATTERICK GARRISON",
   "SUPERMARKET": "Tesco"
 },
 {
   "SID": "145.000000000000000",
   "LON": "-1.319070000000000",
   "LAT": "54.518239999999900",
   "NAME": "STOCKTON-ON-TEES INGLEBY BARWICK",
   "SUPERMARKET": "Tesco"
 },
 {
   "SID": "146.000000000000000",
   "LON": "-1.242200000000000",
   "LAT": "54.532400000000000",
   "NAME": "ACKLAM ROAD EXPRESS",
   "SUPERMARKET": "Tesco"
 },
 {
   "SID": "147.000000000000000",
   "LON": "-1.067870000000000",
   "LAT": "54.615310000000000",
   "NAME": "REDCAR",
   "SUPERMARKET": "Tesco"
 },
 {
   "SID": "148.000000000000000",
   "LON": "-4.430950000000000",
   "LAT": "57.597520000000000",
   "NAME": "DINGWALL MART ROAD",
   "SUPERMARKET": "Tesco"
 },
 {
   "SID": "149.000000000000000",
   "LON": "-1.156010000000000",
   "LAT": "54.557350000000000",
   "NAME": "NORMANBY EXPRESS",
   "SUPERMARKET": "Tesco"
 },
 {
   "SID": "150.000000000000000",
   "LON": "-1.216400000000000",
   "LAT": "54.523859999999900",
   "NAME": "MIDDLESBROUGH COULBY NEWHAM",
   "SUPERMARKET": "Tesco"
 },
 {
   "SID": "151.000000000000000",
   "LON": "-1.193560000000000",
   "LAT": "54.526750000000000",
   "NAME": "MIDDLESBROUGH DIXONS BANK EXPRESS",
   "SUPERMARKET": "Tesco"
 },
 {
   "SID": "152.000000000000000",
   "LON": "-2.768890000000000",
   "LAT": "54.127980000000000",
   "NAME": "CARNFORTH",
   "SUPERMARKET": "Tesco"
 },
 {
   "SID": "153.000000000000000",
   "LON": "-3.233220000000000",
   "LAT": "54.112890000000000",
   "NAME": "BARROW-IN-FURNESS EXTRA",
   "SUPERMARKET": "Tesco"
 },
 {
   "SID": "154.000000000000000",
   "LON": "-2.002190000000000",
   "LAT": "57.687919999999900",
   "NAME": "FRASERBURGH",
   "SUPERMARKET": "Tesco"
 },
 {
   "SID": "155.000000000000000",
   "LON": "-2.865670000000000",
   "LAT": "54.071880000000000",
   "NAME": "MORECAMBE METRO",
   "SUPERMARKET": "Tesco"
 },
 {
   "SID": "156.000000000000000",
   "LON": "-2.886210000000000",
   "LAT": "54.063899999999900",
   "NAME": "HEYSHAM EXPRESS",
   "SUPERMARKET": "Tesco"
 },
 {
   "SID": "157.000000000000000",
   "LON": "-1.432000000000000",
   "LAT": "54.338439999999900",
   "NAME": "NORTHALLERTON EAST ROAD",
   "SUPERMARKET": "Tesco"
 },
 {
   "SID": "158.000000000000000",
   "LON": "-2.892450000000000",
   "LAT": "54.048430000000000",
   "NAME": "MORECAMBE HEYSHAM ROAD EXPRESS",
   "SUPERMARKET": "Tesco"
 },
 {
   "SID": "159.000000000000000",
   "LON": "-5.650300000000000",
   "LAT": "54.649099999999900",
   "NAME": "BANGOR",
   "SUPERMARKET": "Tesco"
 },
 {
   "SID": "160.000000000000000",
   "LON": "-5.814340000000000",
   "LAT": "54.714660000000000",
   "NAME": "CARRICKFERGUS CASTLE",
   "SUPERMARKET": "Tesco"
 },
 {
   "SID": "161.000000000000000",
   "LON": "-5.705260000000000",
   "LAT": "54.596980000000000",
   "NAME": "NEWTOWNARDS",
   "SUPERMARKET": "Tesco"
 },
 {
   "SID": "162.000000000000000",
   "LON": "-5.833370000000000",
   "LAT": "54.642130000000000",
   "NAME": "HOLYWOOD",
   "SUPERMARKET": "Tesco"
 },
 {
   "SID": "163.000000000000000",
   "LON": "-5.912280000000000",
   "LAT": "54.688540000000000",
   "NAME": "NEWTOWNABBEY MONKSTOWN EXPRESS",
   "SUPERMARKET": "Tesco"
 },
 {
   "SID": "164.000000000000000",
   "LON": "-5.905010000000000",
   "LAT": "54.676800000000000",
   "NAME": "NEWTOWNABBEY GLENGORMLEY",
   "SUPERMARKET": "Tesco"
 },
 {
   "SID": "165.000000000000000",
   "LON": "-1.350770000000000",
   "LAT": "54.231040000000000",
   "NAME": "THIRSK",
   "SUPERMARKET": "Tesco"
 },
 {
   "SID": "166.000000000000000",
   "LON": "-5.853430000000000",
   "LAT": "54.618420000000000",
   "NAME": "BELFAST KNOCKNAGONEY ROAD",
   "SUPERMARKET": "Tesco"
 },
 {
   "SID": "167.000000000000000",
   "LON": "-5.744290000000000",
   "LAT": "54.550020000000000",
   "NAME": "COMBER EXPRESS",
   "SUPERMARKET": "Tesco"
 },
 {
   "SID": "168.000000000000000",
   "LON": "-3.020920000000000",
   "LAT": "53.921050000000000",
   "NAME": "FLEETWOOD POULTON ROAD EXPRESS",
   "SUPERMARKET": "Tesco"
 },
 {
   "SID": "169.000000000000000",
   "LON": "-5.960820000000000",
   "LAT": "54.677470000000000",
   "NAME": "NEWTOWNABBEY NORTHCOTT",
   "SUPERMARKET": "Tesco"
 },
 {
   "SID": "170.000000000000000",
   "LON": "-5.962320000000000",
   "LAT": "54.668520000000000",
   "NAME": "GLENGORMLEY EXPRESS",
   "SUPERMARKET": "Tesco"
 },
 {
   "SID": "171.000000000000000",
   "LON": "-5.939860000000000",
   "LAT": "54.651899999999900",
   "NAME": "NEWTOWNABBEY",
   "SUPERMARKET": "Tesco"
 },
 {
   "SID": "172.000000000000000",
   "LON": "-5.858600000000000",
   "LAT": "54.594510000000000",
   "NAME": "BALLYHACKAMORE EXPRESS",
   "SUPERMARKET": "Tesco"
 },
 {
   "SID": "173.000000000000000",
   "LON": "-5.876850000000000",
   "LAT": "54.600250000000000",
   "NAME": "BELFAST BELMONT ROAD",
   "SUPERMARKET": "Tesco"
 },
 {
   "SID": "174.000000000000000",
   "LON": "-5.889350000000000",
   "LAT": "54.595759999999900",
   "NAME": "BELFAST CONNSWATER",
   "SUPERMARKET": "Tesco"
 },
 {
   "SID": "175.000000000000000",
   "LON": "-5.937830000000000",
   "LAT": "54.619579999999900",
   "NAME": "BELFAST ANTRIM ROAD",
   "SUPERMARKET": "Tesco"
 },
 {
   "SID": "176.000000000000000",
   "LON": "-5.926730000000000",
   "LAT": "54.609400000000000",
   "NAME": "BELFAST YORKGATE CENTRE",
   "SUPERMARKET": "Tesco"
 },
 {
   "SID": "177.000000000000000",
   "LON": "-5.898460000000000",
   "LAT": "54.584080000000000",
   "NAME": "BELFAST CREGAGH ROAD",
   "SUPERMARKET": "Tesco"
 },
 {
   "SID": "178.000000000000000",
   "LON": "-6.264610000000000",
   "LAT": "54.854450000000000",
   "NAME": "BALLYMENA",
   "SUPERMARKET": "Tesco"
 },
 {
   "SID": "179.000000000000000",
   "LON": "-5.930880000000000",
   "LAT": "54.599730000000000",
   "NAME": "BELFAST METRO",
   "SUPERMARKET": "Tesco"
 },
 {
   "SID": "180.000000000000000",
   "LON": "-3.044750000000000",
   "LAT": "53.877839999999900",
   "NAME": "THORNTON-CLEVELEYS METRO",
   "SUPERMARKET": "Tesco"
 },
 {
   "SID": "181.000000000000000",
   "LON": "-5.934240000000000",
   "LAT": "54.592050000000000",
   "NAME": "BELFAST DUBLIN ROAD EXPRESS",
   "SUPERMARKET": "Tesco"
 },
 {
   "SID": "182.000000000000000",
   "LON": "-5.970610000000000",
   "LAT": "54.610059999999900",
   "NAME": "BELFAST BALLYGOMARTIN",
   "SUPERMARKET": "Tesco"
 },
 {
   "SID": "183.000000000000000",
   "LON": "-5.909360000000000",
   "LAT": "54.566949999999900",
   "NAME": "CAIRNS HILL EXPRESS",
   "SUPERMARKET": "Tesco"
 },
 {
   "SID": "184.000000000000000",
   "LON": "-5.949400000000000",
   "LAT": "54.580410000000000",
   "NAME": "BELFAST LISBURN ROAD",
   "SUPERMARKET": "Tesco"
 },
 {
   "SID": "185.000000000000000",
   "LON": "-5.915490000000000",
   "LAT": "54.556240000000000",
   "NAME": "BELFAST NEWTOWNBREDA",
   "SUPERMARKET": "Tesco"
 },
 {
   "SID": "186.000000000000000",
   "LON": "-3.039090000000000",
   "LAT": "53.852429999999900",
   "NAME": "BISPHAM EXPRESS",
   "SUPERMARKET": "Tesco"
 },
 {
   "SID": "187.000000000000000",
   "LON": "-2.021490000000000",
   "LAT": "53.957560000000000",
   "NAME": "SKIPTON",
   "SUPERMARKET": "Tesco"
 },
 {
   "SID": "188.000000000000000",
   "LON": "-6.495670000000000",
   "LAT": "54.978520000000000",
   "NAME": "BALLYMONEY CASTLE STREET",
   "SUPERMARKET": "Tesco"
 },
 {
   "SID": "189.000000000000000",
   "LON": "-6.211770000000000",
   "LAT": "54.716830000000000",
   "NAME": "ANTRIM MASSEREENE",
   "SUPERMARKET": "Tesco"
 },
 {
   "SID": "190.000000000000000",
   "LON": "-2.388200000000000",
   "LAT": "53.872280000000000",
   "NAME": "CLITHEROE",
   "SUPERMARKET": "Tesco"
 },
 {
   "SID": "191.000000000000000",
   "LON": "-3.042140000000000",
   "LAT": "53.820459999999900",
   "NAME": "BLACKPOOL CAUNCE STREET EXPRESS",
   "SUPERMARKET": "Tesco"
 },
 {
   "SID": "192.000000000000000",
   "LON": "-5.998640000000000",
   "LAT": "54.553280000000000",
   "NAME": "BELFAST DUNMURRY",
   "SUPERMARKET": "Tesco"
 },
 {
   "SID": "193.000000000000000",
   "LON": "-3.035920000000000",
   "LAT": "53.814599999999900",
   "NAME": "BLACKPOOL WHITEGATE DRIVE EXPRESS",
   "SUPERMARKET": "Tesco"
 },
 {
   "SID": "194.000000000000000",
   "LON": "-6.642720000000000",
   "LAT": "55.111139999999900",
   "NAME": "COLERAINE",
   "SUPERMARKET": "Tesco"
 },
 {
   "SID": "195.000000000000000",
   "LON": "-3.048860000000000",
   "LAT": "53.811680000000000",
   "NAME": "BLACKPOOL CENTRAL DRIVE EXPRESS",
   "SUPERMARKET": "Tesco"
 },
 {
   "SID": "196.000000000000000",
   "LON": "-3.029100000000000",
   "LAT": "53.806660000000000",
   "NAME": "BLACKPOOL MARTON EXPRESS",
   "SUPERMARKET": "Tesco"
 },
 {
   "SID": "197.000000000000000",
   "LON": "-3.038830000000000",
   "LAT": "53.803400000000000",
   "NAME": "BLACKPOOL ANSDELL ROAD EXPRESS",
   "SUPERMARKET": "Tesco"
 },
 {
   "SID": "198.000000000000000",
   "LON": "-3.051260000000000",
   "LAT": "53.800310000000000",
   "NAME": "BLACKPOOL LYTHAM ROAD EXPRESS",
   "SUPERMARKET": "Tesco"
 },
 {
   "SID": "199.000000000000000",
   "LON": "-2.990530000000000",
   "LAT": "53.794550000000000",
   "NAME": "BLACKPOOL CLIFTON EXTRA",
   "SUPERMARKET": "Tesco"
 },
 {
   "SID": "200.000000000000000",
   "LON": "-3.045840000000000",
   "LAT": "53.785380000000000",
   "NAME": "SOUTH SHORE EXPRESS",
   "SUPERMARKET": "Tesco"
 },
 {
   "SID": "201.000000000000000",
   "LON": "-1.816440000000000",
   "LAT": "53.924259999999900",
   "NAME": "ILKLEY",
   "SUPERMARKET": "Tesco"
 },
 {
   "SID": "202.000000000000000",
   "LON": "-1.794890000000000",
   "LAT": "53.928710000000000",
   "NAME": "ILKLEY EXPRESS",
   "SUPERMARKET": "Tesco"
 },
 {
   "SID": "203.000000000000000",
   "LON": "-2.165940000000000",
   "LAT": "53.856990000000000",
   "NAME": "COLNE MARKET STREET EXPRESS",
   "SUPERMARKET": "Tesco"
 },
 {
   "SID": "204.000000000000000",
   "LON": "-1.503280000000000",
   "LAT": "53.997259999999900",
   "NAME": "HARROGATE EXPRESS",
   "SUPERMARKET": "Tesco"
 },
 {
   "SID": "205.000000000000000",
   "LON": "-2.675150000000000",
   "LAT": "53.786700000000000",
   "NAME": "FULWOOD EXPRESS",
   "SUPERMARKET": "Tesco"
 },
 {
   "SID": "206.000000000000000",
   "LON": "-6.055100000000000",
   "LAT": "54.514600000000000",
   "NAME": "LISBURN BENTRIM ROAD",
   "SUPERMARKET": "Tesco"
 },
 {
   "SID": "207.000000000000000",
   "LON": "-3.015470000000000",
   "LAT": "53.765529999999900",
   "NAME": "LYTHAM ST ANNE'S KILNHOUSE LANE EXPRESS",
   "SUPERMARKET": "Tesco"
 },
 {
   "SID": "208.000000000000000",
   "LON": "-2.657260000000000",
   "LAT": "53.781239999999900",
   "NAME": "RIBBLETON EXPRESS",
   "SUPERMARKET": "Tesco"
 },
 {
   "SID": "209.000000000000000",
   "LON": "-3.035710000000000",
   "LAT": "53.759999999999900",
   "NAME": "LYTHAM ST ANNES ST DAVIDS ROAD NORTH EXPRESS",
   "SUPERMARKET": "Tesco"
 },
 {
   "SID": "210.000000000000000",
   "LON": "-2.754900000000000",
   "LAT": "53.768590000000000",
   "NAME": "PRESTON BLACKPOOL ROAD EXPRESS",
   "SUPERMARKET": "Tesco"
 },
 {
   "SID": "211.000000000000000",
   "LON": "-2.225700000000000",
   "LAT": "53.809559999999900",
   "NAME": "REEDLEY EXPRESS",
   "SUPERMARKET": "Tesco"
 },
 {
   "SID": "212.000000000000000",
   "LON": "-1.851330000000000",
   "LAT": "53.864719999999900",
   "NAME": "CROSSFLATS EXPRESS",
   "SUPERMARKET": "Tesco"
 },
 {
   "SID": "213.000000000000000",
   "LON": "-2.241660000000000",
   "LAT": "53.785310000000000",
   "NAME": "BURNLEY",
   "SUPERMARKET": "Tesco"
 },
 {
   "SID": "214.000000000000000",
   "LON": "-2.482980000000000",
   "LAT": "53.749609999999900",
   "NAME": "BLACKBURN METRO",
   "SUPERMARKET": "Tesco"
 },
 {
   "SID": "215.000000000000000",
   "LON": "-2.459520000000000",
   "LAT": "53.751309999999900",
   "NAME": "BLACKBURN",
   "SUPERMARKET": "Tesco"
 },
 {
   "SID": "216.000000000000000",
   "LON": "-2.498210000000000",
   "LAT": "53.742519999999900",
   "NAME": "BLACKBURN BANK TOP EXPRESS",
   "SUPERMARKET": "Tesco"
 },
 {
   "SID": "217.000000000000000",
   "LON": "-2.363670000000000",
   "LAT": "53.754199999999900",
   "NAME": "ACCRINGTON ABBEY STREET EXPRESS",
   "SUPERMARKET": "Tesco"
 },
 {
   "SID": "218.000000000000000",
   "LON": "-2.713880000000000",
   "LAT": "53.698259999999900",
   "NAME": "LEYLAND EARNSHAW BRIDGE EXPRESS",
   "SUPERMARKET": "Tesco"
 },
 {
   "SID": "219.000000000000000",
   "LON": "-1.815750000000000",
   "LAT": "53.816189999999900",
   "NAME": "HEATON HAWORTH ROAD EXPRESS",
   "SUPERMARKET": "Tesco"
 },
 {
   "SID": "220.000000000000000",
   "LON": "-1.034680000000000",
   "LAT": "54.040050000000000",
   "NAME": "STRENSALL EXPRESS",
   "SUPERMARKET": "Tesco"
 },
 {
   "SID": "221.000000000000000",
   "LON": "-1.623170000000000",
   "LAT": "53.857300000000000",
   "NAME": "COOKRIDGE EXPRESS",
   "SUPERMARKET": "Tesco"
 },
 {
   "SID": "222.000000000000000",
   "LON": "-2.697150000000000",
   "LAT": "53.689410000000000",
   "NAME": "LEYLAND EXTRA",
   "SUPERMARKET": "Tesco"
 },
 {
   "SID": "223.000000000000000",
   "LON": "-1.632870000000000",
   "LAT": "53.846809999999900",
   "NAME": "HORSFORTH EXPRESS",
   "SUPERMARKET": "Tesco"
 },
 {
   "SID": "224.000000000000000",
   "LON": "-0.418070000000000",
   "LAT": "54.296250000000000",
   "NAME": "SCARBOROUGH BURNISTON ROAD EXPRESS",
   "SUPERMARKET": "Tesco"
 },
 {
   "SID": "225.000000000000000",
   "LON": "-2.964610000000000",
   "LAT": "53.662460000000000",
   "NAME": "SOUTHPORT CHURCHTOWN EXPRESS",
   "SUPERMARKET": "Tesco"
 },
 {
   "SID": "226.000000000000000",
   "LON": "-1.102790000000000",
   "LAT": "53.991619999999900",
   "NAME": "YORK EXTRA",
   "SUPERMARKET": "Tesco"
 },
 {
   "SID": "227.000000000000000",
   "LON": "-1.642040000000000",
   "LAT": "53.831960000000000",
   "NAME": "HORSFORTH NEW ROAD EXPRESS",
   "SUPERMARKET": "Tesco"
 },
 {
   "SID": "228.000000000000000",
   "LON": "-1.754380000000000",
   "LAT": "53.804119999999900",
   "NAME": "BRADFORD PEEL CENTRE",
   "SUPERMARKET": "Tesco"
 },
 {
   "SID": "229.000000000000000",
   "LON": "-2.996330000000000",
   "LAT": "53.653430000000000",
   "NAME": "HESKETH EXPRESS",
   "SUPERMARKET": "Tesco"
 },
 {
   "SID": "230.000000000000000",
   "LON": "-0.403570000000000",
   "LAT": "54.283960000000000",
   "NAME": "SCARBOROUGH CASTLE EXPRESS",
   "SUPERMARKET": "Tesco"
 },
 {
   "SID": "231.000000000000000",
   "LON": "-0.404950000000000",
   "LAT": "54.278570000000000",
   "NAME": "SCARBOROUGH",
   "SUPERMARKET": "Tesco"
 },
 {
   "SID": "232.000000000000000",
   "LON": "-2.290880000000000",
   "LAT": "53.698320000000000",
   "NAME": "ROSSENDALE RAWTENSTALL",
   "SUPERMARKET": "Tesco"
 },
 {
   "SID": "233.000000000000000",
   "LON": "-2.316630000000000",
   "LAT": "53.693890000000000",
   "NAME": "ROSSENDALE HASLINGDEN",
   "SUPERMARKET": "Tesco"
 },
 {
   "SID": "234.000000000000000",
   "LON": "-1.069000000000000",
   "LAT": "53.984890000000000",
   "NAME": "HUNTINGTON HUNTINGTON ROAD EXPRESS",
   "SUPERMARKET": "Tesco"
 },
 {
   "SID": "235.000000000000000",
   "LON": "-1.788500000000000",
   "LAT": "53.779200000000000",
   "NAME": "BRADFORD EXTRA",
   "SUPERMARKET": "Tesco"
 },
 {
   "SID": "236.000000000000000",
   "LON": "-2.655460000000000",
   "LAT": "53.654989999999900",
   "NAME": "CHORLEY EXTRA",
   "SUPERMARKET": "Tesco"
 },
 {
   "SID": "237.000000000000000",
   "LON": "-2.971810000000000",
   "LAT": "53.631770000000000",
   "NAME": "SOUTHPORT EXTRA",
   "SUPERMARKET": "Tesco"
 },
 {
   "SID": "238.000000000000000",
   "LON": "-6.949370000000000",
   "LAT": "55.053379999999900",
   "NAME": "LIMAVADY ROEVALLEY",
   "SUPERMARKET": "Tesco"
 },
 {
   "SID": "239.000000000000000",
   "LON": "-1.534090000000000",
   "LAT": "53.825870000000000",
   "NAME": "LEEDS HARROGATE ROAD EXPRESS",
   "SUPERMARKET": "Tesco"
 },
 {
   "SID": "240.000000000000000",
   "LON": "-3.012200000000000",
   "LAT": "53.623510000000000",
   "NAME": "SOUTHPORT BIRKDALE EXPRESS",
   "SUPERMARKET": "Tesco"
 },
 {
   "SID": "241.000000000000000",
   "LON": "-1.882640000000000",
   "LAT": "53.743279999999900",
   "NAME": "OVENDEN EXPRESS",
   "SUPERMARKET": "Tesco"
 },
 {
   "SID": "242.000000000000000",
   "LON": "-1.134110000000000",
   "LAT": "53.938859999999900",
   "NAME": "YORK ACOMB WOOD EXPRESS",
   "SUPERMARKET": "Tesco"
 },
 {
   "SID": "243.000000000000000",
   "LON": "-1.794090000000000",
   "LAT": "53.759329999999900",
   "NAME": "BRADFORD BUTTERSHAW",
   "SUPERMARKET": "Tesco"
 },
 {
   "SID": "244.000000000000000",
   "LON": "-5.932210000000000",
   "LAT": "54.231029999999900",
   "NAME": "NEWCASTLE CO DOWN",
   "SUPERMARKET": "Tesco"
 },
 {
   "SID": "245.000000000000000",
   "LON": "-1.511560000000000",
   "LAT": "53.821790000000000",
   "NAME": "LEEDS",
   "SUPERMARKET": "Tesco"
 },
 {
   "SID": "246.000000000000000",
   "LON": "-1.590310000000000",
   "LAT": "53.798810000000000",
   "NAME": "ARMLEY EXPRESS",
   "SUPERMARKET": "Tesco"
 },
 {
   "SID": "247.000000000000000",
   "LON": "-6.334350000000000",
   "LAT": "54.462370000000000",
   "NAME": "CRAIGAVON LURGAN CARNEGIE STREET",
   "SUPERMARKET": "Tesco"
 },
 {
   "SID": "248.000000000000000",
   "LON": "-1.494900000000000",
   "LAT": "53.821599999999900",
   "NAME": "LEEDS EASTERLY ROAD EXPRESS",
   "SUPERMARKET": "Tesco"
 },
 {
   "SID": "249.000000000000000",
   "LON": "-1.113730000000000",
   "LAT": "53.933599999999900",
   "NAME": "YORK TADCASTER ROAD EXTRA",
   "SUPERMARKET": "Tesco"
 },
 {
   "SID": "250.000000000000000",
   "LON": "-1.460660000000000",
   "LAT": "53.821990000000000",
   "NAME": "LEEDS SEACROFT EXTRA",
   "SUPERMARKET": "Tesco"
 },
 {
   "SID": "251.000000000000000",
   "LON": "-2.842040000000000",
   "LAT": "53.603659999999900",
   "NAME": "ORMSKIRK BURSCOUGH BRIDGE",
   "SUPERMARKET": "Tesco"
 },
 {
   "SID": "252.000000000000000",
   "LON": "-1.858310000000000",
   "LAT": "53.722479999999900",
   "NAME": "HALIFAX METRO",
   "SUPERMARKET": "Tesco"
 },
 {
   "SID": "253.000000000000000",
   "LON": "-2.316010000000000",
   "LAT": "53.647129999999900",
   "NAME": "RAMSBOTTOM METRO",
   "SUPERMARKET": "Tesco"
 },
 {
   "SID": "254.000000000000000",
   "LON": "-1.877250000000000",
   "LAT": "53.714759999999900",
   "NAME": "HALIFAX AACHEN WAY",
   "SUPERMARKET": "Tesco"
 },
 {
   "SID": "255.000000000000000",
   "LON": "-1.913340000000000",
   "LAT": "53.707120000000000",
   "NAME": "SOWERBY BRIDGE",
   "SUPERMARKET": "Tesco"
 },
 {
   "SID": "256.000000000000000",
   "LON": "-1.450960000000000",
   "LAT": "53.806030000000000",
   "NAME": "CROSSGATES METRO",
   "SUPERMARKET": "Tesco"
 },
 {
   "SID": "257.000000000000000",
   "LON": "-6.390050000000000",
   "LAT": "54.448869999999900",
   "NAME": "CRAIGAVON",
   "SUPERMARKET": "Tesco"
 },
 {
   "SID": "258.000000000000000",
   "LON": "-1.713950000000000",
   "LAT": "53.724780000000000",
   "NAME": "CLECKHEATON",
   "SUPERMARKET": "Tesco"
 },
 {
   "SID": "259.000000000000000",
   "LON": "-6.266560000000000",
   "LAT": "54.350450000000000",
   "NAME": "BANBRIDGE",
   "SUPERMARKET": "Tesco"
 },
 {
   "SID": "260.000000000000000",
   "LON": "-1.660170000000000",
   "LAT": "53.731330000000000",
   "NAME": "BIRSTALL SMITHIES LANE EXPRESS",
   "SUPERMARKET": "Tesco"
 },
 {
   "SID": "261.000000000000000",
   "LON": "-1.776200000000000",
   "LAT": "53.703679999999900",
   "NAME": "BRIGHOUSE BRADFORD ROAD",
   "SUPERMARKET": "Tesco"
 },
 {
   "SID": "262.000000000000000",
   "LON": "-2.887400000000000",
   "LAT": "53.567500000000000",
   "NAME": "ORMSKIRK METRO",
   "SUPERMARKET": "Tesco"
 },
 {
   "SID": "263.000000000000000",
   "LON": "-1.383140000000000",
   "LAT": "53.797409999999900",
   "NAME": "LEEDS GARFORTH",
   "SUPERMARKET": "Tesco"
 },
 {
   "SID": "264.000000000000000",
   "LON": "-2.158840000000000",
   "LAT": "53.629629999999900",
   "NAME": "ROCHDALE WHITWORTH ROAD EXPRESS",
   "SUPERMARKET": "Tesco"
 },
 {
   "SID": "265.000000000000000",
   "LON": "-2.313650000000000",
   "LAT": "53.608719999999900",
   "NAME": "BRANDLESHOLME EXPRESS",
   "SUPERMARKET": "Tesco"
 },
 {
   "SID": "266.000000000000000",
   "LON": "-2.528450000000000",
   "LAT": "53.584699999999900",
   "NAME": "BOLTON HORWICH EXTRA",
   "SUPERMARKET": "Tesco"
 },
 {
   "SID": "267.000000000000000",
   "LON": "-3.043220000000000",
   "LAT": "53.553559999999900",
   "NAME": "LIVERPOOL FORMBY",
   "SUPERMARKET": "Tesco"
 },
 {
   "SID": "268.000000000000000",
   "LON": "-2.322550000000000",
   "LAT": "53.603540000000000",
   "NAME": "BURY TOTTINGTON ROAD EXPRESS",
   "SUPERMARKET": "Tesco"
 },
 {
   "SID": "269.000000000000000",
   "LON": "-2.209040000000000",
   "LAT": "53.613090000000000",
   "NAME": "ROCHDALE BAMFORD EXPRESS",
   "SUPERMARKET": "Tesco"
 },
 {
   "SID": "270.000000000000000",
   "LON": "-2.295430000000000",
   "LAT": "53.596870000000000",
   "NAME": "BURY",
   "SUPERMARKET": "Tesco"
 },
 {
   "SID": "271.000000000000000",
   "LON": "-1.465620000000000",
   "LAT": "53.754449999999900",
   "NAME": "ROTHWELL LEEDS ROAD EXPRESS",
   "SUPERMARKET": "Tesco"
 },
 {
   "SID": "272.000000000000000",
   "LON": "-1.629590000000000",
   "LAT": "53.713979999999900",
   "NAME": "BATLEY EXTRA",
   "SUPERMARKET": "Tesco"
 },
 {
   "SID": "273.000000000000000",
   "LON": "-2.317220000000000",
   "LAT": "53.589550000000000",
   "NAME": "BURY EXPRESS",
   "SUPERMARKET": "Tesco"
 },
 {
   "SID": "274.000000000000000",
   "LON": "-2.453120000000000",
   "LAT": "53.570500000000000",
   "NAME": "BOLTON WIGAN ROAD EXPRESS",
   "SUPERMARKET": "Tesco"
 },
 {
   "SID": "275.000000000000000",
   "LON": "-2.628010000000000",
   "LAT": "53.552930000000000",
   "NAME": "WIGAN EXTRA",
   "SUPERMARKET": "Tesco"
 },
 {
   "SID": "276.000000000000000",
   "LON": "-2.173890000000000",
   "LAT": "53.602550000000000",
   "NAME": "ROCHDALE",
   "SUPERMARKET": "Tesco"
 },
 {
   "SID": "277.000000000000000",
   "LON": "-2.103690000000000",
   "LAT": "53.611469999999900",
   "NAME": "MILNROW EXPRESS",
   "SUPERMARKET": "Tesco"
 },
 {
   "SID": "278.000000000000000",
   "LON": "-6.753300000000000",
   "LAT": "54.648389999999900",
   "NAME": "COOKSTOWN BROADFIELD",
   "SUPERMARKET": "Tesco"
 },
 {
   "SID": "279.000000000000000",
   "LON": "-2.213350000000000",
   "LAT": "53.593840000000000",
   "NAME": "HEYWOOD YORK STREET EXPRESS",
   "SUPERMARKET": "Tesco"
 },
 {
   "SID": "280.000000000000000",
   "LON": "-1.251270000000000",
   "LAT": "53.797060000000000",
   "NAME": "SHERBURN IN ELMET EXPRESS",
   "SUPERMARKET": "Tesco"
 },
 {
   "SID": "281.000000000000000",
   "LON": "-6.457040000000000",
   "LAT": "54.415990000000000",
   "NAME": "CRAIGAVON PORTADOWN MEADOW CENTRE",
   "SUPERMARKET": "Tesco"
 },
 {
   "SID": "282.000000000000000",
   "LON": "-2.683270000000000",
   "LAT": "53.536310000000000",
   "NAME": "PEMBERTON EXPRESS",
   "SUPERMARKET": "Tesco"
 },
 {
   "SID": "283.000000000000000",
   "LON": "-1.809580000000000",
   "LAT": "53.651609999999900",
   "NAME": "MARSH EXPRESS",
   "SUPERMARKET": "Tesco"
 },
 {
   "SID": "284.000000000000000",
   "LON": "-2.371530000000000",
   "LAT": "53.562010000000000",
   "NAME": "BOLTON LITTLE LEVER METRO",
   "SUPERMARKET": "Tesco"
 },
 {
   "SID": "285.000000000000000",
   "LON": "-1.782530000000000",
   "LAT": "53.650320000000000",
   "NAME": "HUDDERSFIELD",
   "SUPERMARKET": "Tesco"
 },
 {
   "SID": "286.000000000000000",
   "LON": "-2.579580000000000",
   "LAT": "53.535269999999900",
   "NAME": "WIGAN HINDLEY",
   "SUPERMARKET": "Tesco"
 },
 {
   "SID": "287.000000000000000",
   "LON": "-1.501880000000000",
   "LAT": "53.709760000000000",
   "NAME": "OUTWOOD EXPRESS",
   "SUPERMARKET": "Tesco"
 },
 {
   "SID": "288.000000000000000",
   "LON": "-2.646330000000000",
   "LAT": "53.527099999999900",
   "NAME": "WIGAN POOLSTOCK LANE EXPRESS",
   "SUPERMARKET": "Tesco"
 },
 {
   "SID": "289.000000000000000",
   "LON": "-1.760330000000000",
   "LAT": "53.647539999999900",
   "NAME": "DALTON EXPRESS",
   "SUPERMARKET": "Tesco"
 },
 {
   "SID": "290.000000000000000",
   "LON": "-2.551400000000000",
   "LAT": "53.524819999999900",
   "NAME": "HINDLEY GREEN EXPRESS",
   "SUPERMARKET": "Tesco"
 },
 {
   "SID": "291.000000000000000",
   "LON": "-2.093940000000000",
   "LAT": "53.577050000000000",
   "NAME": "SHAW EXPRESS",
   "SUPERMARKET": "Tesco"
 },
 {
   "SID": "292.000000000000000",
   "LON": "-2.490420000000000",
   "LAT": "53.521079999999900",
   "NAME": "MANCHESTER ATHERTON",
   "SUPERMARKET": "Tesco"
 },
 {
   "SID": "293.000000000000000",
   "LON": "-2.401030000000000",
   "LAT": "53.526370000000000",
   "NAME": "MANCHESTER WALKDEN",
   "SUPERMARKET": "Tesco"
 },
 {
   "SID": "294.000000000000000",
   "LON": "-2.201050000000000",
   "LAT": "53.548259999999900",
   "NAME": "MIDDLETON METRO",
   "SUPERMARKET": "Tesco"
 },
 {
   "SID": "295.000000000000000",
   "LON": "-2.289300000000000",
   "LAT": "53.536310000000000",
   "NAME": "MANCHESTER PRESTWICH",
   "SUPERMARKET": "Tesco"
 },
 {
   "SID": "296.000000000000000",
   "LON": "-2.192610000000000",
   "LAT": "53.537289999999900",
   "NAME": "ALKRINGTON EXPRESS",
   "SUPERMARKET": "Tesco"
 },
 {
   "SID": "297.000000000000000",
   "LON": "-2.633360000000000",
   "LAT": "53.489820000000000",
   "NAME": "ASHTON-IN-MAKERFIELD EXPRESS",
   "SUPERMARKET": "Tesco"
 },
 {
   "SID": "298.000000000000000",
   "LON": "-2.125940000000000",
   "LAT": "53.545569999999900",
   "NAME": "OLDHAM CHADDERTON",
   "SUPERMARKET": "Tesco"
 },
 {
   "SID": "299.000000000000000",
   "LON": "-2.330330000000000",
   "LAT": "53.517710000000000",
   "NAME": "PENDLEBURY EXPRESS",
   "SUPERMARKET": "Tesco"
 },
 {
   "SID": "300.000000000000000",
   "LON": "-2.091370000000000",
   "LAT": "53.545560000000000",
   "NAME": "OLDHAM",
   "SUPERMARKET": "Tesco"
 },
 {
   "SID": "301.000000000000000",
   "LON": "-1.067070000000000",
   "LAT": "53.780819999999900",
   "NAME": "SELBY",
   "SUPERMARKET": "Tesco"
 },
 {
   "SID": "302.000000000000000",
   "LON": "-2.956880000000000",
   "LAT": "53.464399999999900",
   "NAME": "FAZAKERLEY LONGMOOR LANE EXPRESS",
   "SUPERMARKET": "Tesco"
 },
 {
   "SID": "303.000000000000000",
   "LON": "-2.088930000000000",
   "LAT": "53.539870000000000",
   "NAME": "OLDHAM LEES ROAD EXPRESS",
   "SUPERMARKET": "Tesco"
 },
 {
   "SID": "304.000000000000000",
   "LON": "-2.768200000000000",
   "LAT": "53.468899999999900",
   "NAME": "WINDLE ISLAND EXPRESS",
   "SUPERMARKET": "Tesco"
 },
 {
   "SID": "305.000000000000000",
   "LON": "-2.992360000000000",
   "LAT": "53.451189999999900",
   "NAME": "BOOTLE METRO",
   "SUPERMARKET": "Tesco"
 },
 {
   "SID": "306.000000000000000",
   "LON": "-2.663670000000000",
   "LAT": "53.466569999999900",
   "NAME": "ST HELENS HAYDOCK CHURCH ROAD",
   "SUPERMARKET": "Tesco"
 },
 {
   "SID": "307.000000000000000",
   "LON": "-1.313860000000000",
   "LAT": "53.692059999999900",
   "NAME": "PONTEFRACT",
   "SUPERMARKET": "Tesco"
 },
 {
   "SID": "308.000000000000000",
   "LON": "-2.753820000000000",
   "LAT": "53.459870000000000",
   "NAME": "DENTONS GREEN GREENFIELD ROAD EXPRESS",
   "SUPERMARKET": "Tesco"
 },
 {
   "SID": "309.000000000000000",
   "LON": "-0.439990000000000",
   "LAT": "54.004150000000000",
   "NAME": "DRIFFIELD",
   "SUPERMARKET": "Tesco"
 },
 {
   "SID": "310.000000000000000",
   "LON": "-2.739890000000000",
   "LAT": "53.451380000000000",
   "NAME": "ST HELENS",
   "SUPERMARKET": "Tesco"
 },
 {
   "SID": "311.000000000000000",
   "LON": "-2.160080000000000",
   "LAT": "53.507550000000000",
   "NAME": "MANCHESTER FAILSWORTH EXTRA",
   "SUPERMARKET": "Tesco"
 },
 {
   "SID": "312.000000000000000",
   "LON": "-2.350770000000000",
   "LAT": "53.482759999999900",
   "NAME": "ECCLES EXPRESS",
   "SUPERMARKET": "Tesco"
 },
 {
   "SID": "313.000000000000000",
   "LON": "-2.286510000000000",
   "LAT": "53.489460000000000",
   "NAME": "SALFORD METRO",
   "SUPERMARKET": "Tesco"
 },
 {
   "SID": "314.000000000000000",
   "LON": "-7.277850000000000",
   "LAT": "55.004610000000000",
   "NAME": "LONDONDERRY LISNAGELVIN",
   "SUPERMARKET": "Tesco"
 },
 {
   "SID": "315.000000000000000",
   "LON": "-7.273810000000000",
   "LAT": "54.998469999999900",
   "NAME": "LONDONDERRY CRESCENT LINK EXPRESS",
   "SUPERMARKET": "Tesco"
 },
 {
   "SID": "316.000000000000000",
   "LON": "-6.775450000000000",
   "LAT": "54.500259999999900",
   "NAME": "DUNGANNON",
   "SUPERMARKET": "Tesco"
 },
 {
   "SID": "317.000000000000000",
   "LON": "-2.642250000000000",
   "LAT": "53.451860000000000",
   "NAME": "NEWTON-LE-WILLOWS",
   "SUPERMARKET": "Tesco"
 },
 {
   "SID": "318.000000000000000",
   "LON": "-2.898930000000000",
   "LAT": "53.429560000000000",
   "NAME": "LIVERPOOL DEYSBROOK BARRACKS",
   "SUPERMARKET": "Tesco"
 },
 {
   "SID": "319.000000000000000",
   "LON": "-2.242510000000000",
   "LAT": "53.482619999999900",
   "NAME": "MANCHESTER METRO",
   "SUPERMARKET": "Tesco"
 },
 {
   "SID": "320.000000000000000",
   "LON": "-2.234700000000000",
   "LAT": "53.480499999999900",
   "NAME": "PICCADILLY EXPRESS",
   "SUPERMARKET": "Tesco"
 },
 {
   "SID": "321.000000000000000",
   "LON": "-2.250440000000000",
   "LAT": "53.478230000000000",
   "NAME": "MANCHESTER QUAY STREET EXPRESS",
   "SUPERMARKET": "Tesco"
 },
 {
   "SID": "322.000000000000000",
   "LON": "-3.089560000000000",
   "LAT": "58.453029999999900",
   "NAME": "WICK",
   "SUPERMARKET": "Tesco"
 },
 {
   "SID": "323.000000000000000",
   "LON": "-7.315890000000000",
   "LAT": "55.012349999999900",
   "NAME": "LONDONDERRY STRAND ROAD",
   "SUPERMARKET": "Tesco"
 },
 {
   "SID": "324.000000000000000",
   "LON": "-2.801040000000000",
   "LAT": "53.426819999999900",
   "NAME": "PRESCOT EXTRA",
   "SUPERMARKET": "Tesco"
 },
 {
   "SID": "325.000000000000000",
   "LON": "-2.281680000000000",
   "LAT": "53.471200000000000",
   "NAME": "SALFORD QUAYS TRAFFORD ROAD EXPRESS",
   "SUPERMARKET": "Tesco"
 },
 {
   "SID": "326.000000000000000",
   "LON": "-0.198880000000000",
   "LAT": "54.084229999999900",
   "NAME": "BRIDLINGTON",
   "SUPERMARKET": "Tesco"
 },
 {
   "SID": "327.000000000000000",
   "LON": "-3.045740000000000",
   "LAT": "53.411720000000000",
   "NAME": "WALLASEY POULTON ROAD EXPRESS",
   "SUPERMARKET": "Tesco"
 },
 {
   "SID": "328.000000000000000",
   "LON": "-2.224290000000000",
   "LAT": "53.470979999999900",
   "NAME": "MANCHESTER ARDWICK GREEN EXPRESS",
   "SUPERMARKET": "Tesco"
 },
 {
   "SID": "329.000000000000000",
   "LON": "-2.148310000000000",
   "LAT": "53.480719999999900",
   "NAME": "MANCHESTER DROYLSDEN",
   "SUPERMARKET": "Tesco"
 },
 {
   "SID": "330.000000000000000",
   "LON": "-2.915920000000000",
   "LAT": "53.413209999999900",
   "NAME": "LIVERPOOL OLD SWAN",
   "SUPERMARKET": "Tesco"
 },
 {
   "SID": "331.000000000000000",
   "LON": "-3.070360000000000",
   "LAT": "53.408050000000000",
   "NAME": "BIRKENHEAD BIDSTON MOSS EXTRA",
   "SUPERMARKET": "Tesco"
 },
 {
   "SID": "332.000000000000000",
   "LON": "-0.662760000000000",
   "LAT": "53.862070000000000",
   "NAME": "YORK MARKET WEIGHTON",
   "SUPERMARKET": "Tesco"
 },
 {
   "SID": "333.000000000000000",
   "LON": "-2.981870000000000",
   "LAT": "53.405790000000000",
   "NAME": "LIVERPOOL METRO",
   "SUPERMARKET": "Tesco"
 },
 {
   "SID": "334.000000000000000",
   "LON": "-2.967000000000000",
   "LAT": "53.405999999999900",
   "NAME": "LIVERPOOL BROWNLOW HILL EXPRESS",
   "SUPERMARKET": "Tesco"
 },
 {
   "SID": "335.000000000000000",
   "LON": "-2.259960000000000",
   "LAT": "53.458120000000000",
   "NAME": "FIRSWOOD EXPRESS",
   "SUPERMARKET": "Tesco"
 },
 {
   "SID": "336.000000000000000",
   "LON": "-2.222750000000000",
   "LAT": "53.461849999999900",
   "NAME": "MANCHESTER RUSHOLME EXPRESS",
   "SUPERMARKET": "Tesco"
 },
 {
   "SID": "337.000000000000000",
   "LON": "-2.423240000000000",
   "LAT": "53.437779999999900",
   "NAME": "MANCHESTER IRLAM EXTRA",
   "SUPERMARKET": "Tesco"
 },
 {
   "SID": "338.000000000000000",
   "LON": "-2.226600000000000",
   "LAT": "53.458799999999900",
   "NAME": "MANCHESTER OXFORD ROAD EXPRESS",
   "SUPERMARKET": "Tesco"
 },
 {
   "SID": "339.000000000000000",
   "LON": "-2.053050000000000",
   "LAT": "53.482480000000000",
   "NAME": "STALYBRIDGE",
   "SUPERMARKET": "Tesco"
 },
 {
   "SID": "340.000000000000000",
   "LON": "-3.124060000000000",
   "LAT": "53.396909999999900",
   "NAME": "WIRRAL HOYLAKE ROAD EXPRESS",
   "SUPERMARKET": "Tesco"
 },
 {
   "SID": "341.000000000000000",
   "LON": "-2.310810000000000",
   "LAT": "53.445219999999900",
   "NAME": "STRETFORD METRO",
   "SUPERMARKET": "Tesco"
 },
 {
   "SID": "342.000000000000000",
   "LON": "-2.173750000000000",
   "LAT": "53.461460000000000",
   "NAME": "Tesco Extra",
   "SUPERMARKET": "Tesco"
 },
 {
   "SID": "343.000000000000000",
   "LON": "-2.117000000000000",
   "LAT": "53.462400000000000",
   "NAME": "MANCHESTER DENTON HOMEPLUS",
   "SUPERMARKET": "Tesco"
 },
 {
   "SID": "344.000000000000000",
   "LON": "-2.925700000000000",
   "LAT": "53.389640000000000",
   "NAME": "LIVERPOOL WAVERTREE EXPRESS",
   "SUPERMARKET": "Tesco"
 },
 {
   "SID": "345.000000000000000",
   "LON": "-2.595440000000000",
   "LAT": "53.407330000000000",
   "NAME": "WARRINGTON WINWICK ROAD EXPRESS",
   "SUPERMARKET": "Tesco"
 },
 {
   "SID": "346.000000000000000",
   "LON": "-2.341860000000000",
   "LAT": "53.429659999999900",
   "NAME": "ASHTON UPON MERSEY EXPRESS",
   "SUPERMARKET": "Tesco"
 },
 {
   "SID": "347.000000000000000",
   "LON": "-2.575230000000000",
   "LAT": "53.406440000000000",
   "NAME": "WARRINGTON ORFORD GREEN EXPRESS",
   "SUPERMARKET": "Tesco"
 },
 {
   "SID": "348.000000000000000",
   "LON": "-2.218870000000000",
   "LAT": "53.441969999999900",
   "NAME": "FALLOWFIELD EXPRESS",
   "SUPERMARKET": "Tesco"
 },
 {
   "SID": "349.000000000000000",
   "LON": "-2.324340000000000",
   "LAT": "53.424469999999900",
   "NAME": "SALE",
   "SUPERMARKET": "Tesco"
 },
 {
   "SID": "350.000000000000000",
   "LON": "-2.913130000000000",
   "LAT": "53.380139999999900",
   "NAME": "MOSSLEY HILL EXPRESS",
   "SUPERMARKET": "Tesco"
 },
 {
   "SID": "351.000000000000000",
   "LON": "-2.907270000000000",
   "LAT": "53.380279999999900",
   "NAME": "LIVERPOOL ALLERTON ROAD",
   "SUPERMARKET": "Tesco"
 },
 {
   "SID": "352.000000000000000",
   "LON": "-2.948140000000000",
   "LAT": "53.378300000000000",
   "NAME": "LIVERPOOL AIGBURTH METRO",
   "SUPERMARKET": "Tesco"
 },
 {
   "SID": "353.000000000000000",
   "LON": "-2.594650000000000",
   "LAT": "53.396799999999900",
   "NAME": "WARRINGTON EXTRA",
   "SUPERMARKET": "Tesco"
 },
 {
   "SID": "354.000000000000000",
   "LON": "-1.468570000000000",
   "LAT": "53.570689999999900",
   "NAME": "SMITHIES CARLTON ROAD EXPRESS",
   "SUPERMARKET": "Tesco"
 },
 {
   "SID": "355.000000000000000",
   "LON": "-2.240880000000000",
   "LAT": "53.428660000000000",
   "NAME": "DIDSBURY EXPRESS",
   "SUPERMARKET": "Tesco"
 },
 {
   "SID": "356.000000000000000",
   "LON": "-2.351560000000000",
   "LAT": "53.414679999999900",
   "NAME": "SALE MANOR AVENUE EXPRESS",
   "SUPERMARKET": "Tesco"
 },
 {
   "SID": "357.000000000000000",
   "LON": "-2.873310000000000",
   "LAT": "53.373519999999900",
   "NAME": "LIVERPOOL WOOLTON",
   "SUPERMARKET": "Tesco"
 },
 {
   "SID": "358.000000000000000",
   "LON": "-3.016380000000000",
   "LAT": "53.365040000000000",
   "NAME": "BIRKENHEAD ROCK FERRY METRO",
   "SUPERMARKET": "Tesco"
 },
 {
   "SID": "359.000000000000000",
   "LON": "-2.212500000000000",
   "LAT": "53.420800000000000",
   "NAME": "MANCHESTER BURNAGE",
   "SUPERMARKET": "Tesco"
 },
 {
   "SID": "360.000000000000000",
   "LON": "-2.069910000000000",
   "LAT": "53.437930000000000",
   "NAME": "GEE CROSS STOCKPORT ROAD EXPRESS",
   "SUPERMARKET": "Tesco"
 },
 {
   "SID": "361.000000000000000",
   "LON": "-2.188760000000000",
   "LAT": "53.418329999999900",
   "NAME": "HEATON MOOR EXPRESS",
   "SUPERMARKET": "Tesco"
 },
 {
   "SID": "362.000000000000000",
   "LON": "-2.219570000000000",
   "LAT": "53.412300000000000",
   "NAME": "MANCHESTER EAST DIDSBURY",
   "SUPERMARKET": "Tesco"
 },
 {
   "SID": "363.000000000000000",
   "LON": "-2.260550000000000",
   "LAT": "53.407010000000000",
   "NAME": "MANCHESTER NORTHENDEN METRO",
   "SUPERMARKET": "Tesco"
 },
 {
   "SID": "364.000000000000000",
   "LON": "-2.296610000000000",
   "LAT": "53.400320000000000",
   "NAME": "MANCHESTER BAGULEY EXTRA",
   "SUPERMARKET": "Tesco"
 },
 {
   "SID": "365.000000000000000",
   "LON": "-1.963420000000000",
   "LAT": "53.445320000000000",
   "NAME": "GLOSSOP",
   "SUPERMARKET": "Tesco"
 },
 {
   "SID": "366.000000000000000",
   "LON": "-2.153570000000000",
   "LAT": "53.416420000000000",
   "NAME": "STOCKPORT EXTRA",
   "SUPERMARKET": "Tesco"
 },
 {
   "SID": "367.000000000000000",
   "LON": "-0.876690000000000",
   "LAT": "53.705300000000000",
   "NAME": "GOOLE BOOTHFERRY ROAD",
   "SUPERMARKET": "Tesco"
 },
 {
   "SID": "368.000000000000000",
   "LON": "-2.345870000000000",
   "LAT": "53.384929999999900",
   "NAME": "ALTRINCHAM EXTRA",
   "SUPERMARKET": "Tesco"
 },
 {
   "SID": "369.000000000000000",
   "LON": "-2.975710000000000",
   "LAT": "53.340840000000000",
   "NAME": "WIRRAL BROMBOROUGH HOMEPLUS",
   "SUPERMARKET": "Tesco"
 },
 {
   "SID": "370.000000000000000",
   "LON": "-1.431920000000000",
   "LAT": "53.540540000000000",
   "NAME": "BARNSLEY",
   "SUPERMARKET": "Tesco"
 },
 {
   "SID": "371.000000000000000",
   "LON": "-2.343820000000000",
   "LAT": "53.376309999999900",
   "NAME": "HALE EXPRESS",
   "SUPERMARKET": "Tesco"
 },
 {
   "SID": "372.000000000000000",
   "LON": "-3.103010000000000",
   "LAT": "53.328560000000000",
   "NAME": "WIRRAL HESWALL",
   "SUPERMARKET": "Tesco"
 },
 {
   "SID": "373.000000000000000",
   "LON": "-0.426890000000000",
   "LAT": "53.844520000000000",
   "NAME": "BEVERLEY",
   "SUPERMARKET": "Tesco"
 },
 {
   "SID": "374.000000000000000",
   "LON": "-2.698530000000000",
   "LAT": "53.327710000000000",
   "NAME": "RUNCORN METRO",
   "SUPERMARKET": "Tesco"
 },
 {
   "SID": "375.000000000000000",
   "LON": "-2.232040000000000",
   "LAT": "53.370190000000000",
   "NAME": "HEALD GREEN EXPRESS",
   "SUPERMARKET": "Tesco"
 },
 {
   "SID": "376.000000000000000",
   "LON": "-2.186790000000000",
   "LAT": "53.374299999999900",
   "NAME": "CHEADLE HULME EXPRESS",
   "SUPERMARKET": "Tesco"
 },
 {
   "SID": "377.000000000000000",
   "LON": "-1.448810000000000",
   "LAT": "53.500219999999900",
   "NAME": "HOYLAND WEST STREET EXPRESS",
   "SUPERMARKET": "Tesco"
 },
 {
   "SID": "378.000000000000000",
   "LON": "-2.114130000000000",
   "LAT": "53.366819999999900",
   "NAME": "HAZEL GROVE EXPRESS",
   "SUPERMARKET": "Tesco"
 },
 {
   "SID": "379.000000000000000",
   "LON": "-1.314080000000000",
   "LAT": "53.522179999999900",
   "NAME": "BOLTON ON DEARNE EXPRESS",
   "SUPERMARKET": "Tesco"
 },
 {
   "SID": "380.000000000000000",
   "LON": "-2.205520000000000",
   "LAT": "53.350479999999900",
   "NAME": "WILMSLOW HANDFORTH",
   "SUPERMARKET": "Tesco"
 },
 {
   "SID": "381.000000000000000",
   "LON": "-2.164500000000000",
   "LAT": "53.355139999999900",
   "NAME": "BRAMHALL EXPRESS",
   "SUPERMARKET": "Tesco"
 },
 {
   "SID": "382.000000000000000",
   "LON": "-3.064560000000000",
   "LAT": "53.289610000000000",
   "NAME": "NESTON METRO",
   "SUPERMARKET": "Tesco"
 },
 {
   "SID": "383.000000000000000",
   "LON": "-1.341430000000000",
   "LAT": "53.503090000000000",
   "NAME": "ROTHERHAM WATH-UPON-DEARNE EXTRA",
   "SUPERMARKET": "Tesco"
 },
 {
   "SID": "384.000000000000000",
   "LON": "-2.215360000000000",
   "LAT": "53.336910000000000",
   "NAME": "WILMSLOW DEAN ROW ROAD EXPRESS",
   "SUPERMARKET": "Tesco"
 },
 {
   "SID": "385.000000000000000",
   "LON": "-2.942330000000000",
   "LAT": "53.280769999999900",
   "NAME": "LITTLE SUTTON EXPRESS",
   "SUPERMARKET": "Tesco"
 },
 {
   "SID": "386.000000000000000",
   "LON": "-3.519570000000000",
   "LAT": "58.590440000000000",
   "NAME": "THURSO",
   "SUPERMARKET": "Tesco"
 },
 {
   "SID": "387.000000000000000",
   "LON": "-3.582810000000000",
   "LAT": "53.284540000000000",
   "NAME": "ABERGELE",
   "SUPERMARKET": "Tesco"
 },
 {
   "SID": "388.000000000000000",
   "LON": "-1.481680000000000",
   "LAT": "53.461570000000000",
   "NAME": "CHAPELTOWN EXPRESS",
   "SUPERMARKET": "Tesco"
 },
 {
   "SID": "389.000000000000000",
   "LON": "-1.145760000000000",
   "LAT": "53.546680000000000",
   "NAME": "BENTLEY EXPRESS",
   "SUPERMARKET": "Tesco"
 },
 {
   "SID": "390.000000000000000",
   "LON": "-2.232680000000000",
   "LAT": "53.326590000000000",
   "NAME": "WILMSLOW ALDERLEY ROAD EXPRESS",
   "SUPERMARKET": "Tesco"
 },
 {
   "SID": "391.000000000000000",
   "LON": "-1.001390000000000",
   "LAT": "53.579360000000000",
   "NAME": "HATFIELD STATION ROAD EXPRESS",
   "SUPERMARKET": "Tesco"
 },
 {
   "SID": "392.000000000000000",
   "LON": "-1.290040000000000",
   "LAT": "53.492989999999900",
   "NAME": "MEXBOROUGH METRO",
   "SUPERMARKET": "Tesco"
 },
 {
   "SID": "393.000000000000000",
   "LON": "-1.067640000000000",
   "LAT": "53.553109999999900",
   "NAME": "DONCASTER EDENTHORPE",
   "SUPERMARKET": "Tesco"
 },
 {
   "SID": "394.000000000000000",
   "LON": "-3.813260000000000",
   "LAT": "53.283259999999900",
   "NAME": "LLANDUDNO JUNCTION",
   "SUPERMARKET": "Tesco"
 },
 {
   "SID": "395.000000000000000",
   "LON": "-1.121140000000000",
   "LAT": "53.533459999999900",
   "NAME": "DONCASTER WENTWORTH ROAD EXPRESS",
   "SUPERMARKET": "Tesco"
 },
 {
   "SID": "396.000000000000000",
   "LON": "-2.773500000000000",
   "LAT": "53.265400000000000",
   "NAME": "FRODSHAM HELSBY",
   "SUPERMARKET": "Tesco"
 },
 {
   "SID": "397.000000000000000",
   "LON": "-1.100830000000000",
   "LAT": "53.536250000000000",
   "NAME": "DONCASTER WHEATLEY EXPRESS",
   "SUPERMARKET": "Tesco"
 },
 {
   "SID": "398.000000000000000",
   "LON": "-1.138240000000000",
   "LAT": "53.525489999999900",
   "NAME": "DONCASTER",
   "SUPERMARKET": "Tesco"
 },
 {
   "SID": "399.000000000000000",
   "LON": "-1.983570000000000",
   "LAT": "53.339770000000000",
   "NAME": "HIGH PEAK WHALEY BRIDGE",
   "SUPERMARKET": "Tesco"
 },
 {
   "SID": "400.000000000000000",
   "LON": "-0.363780000000000",
   "LAT": "53.788539999999900",
   "NAME": "HULL",
   "SUPERMARKET": "Tesco"
 },
 {
   "SID": "401.000000000000000",
   "LON": "-0.437770000000000",
   "LAT": "53.754980000000000",
   "NAME": "WILLERBY KIRK ELLA EXPRESS",
   "SUPERMARKET": "Tesco"
 },
 {
   "SID": "402.000000000000000",
   "LON": "-3.142440000000000",
   "LAT": "53.243690000000000",
   "NAME": "FLINT EXPRESS",
   "SUPERMARKET": "Tesco"
 },
 {
   "SID": "403.000000000000000",
   "LON": "-0.833610000000000",
   "LAT": "53.608300000000000",
   "NAME": "CROWLE EXPRESS",
   "SUPERMARKET": "Tesco"
 },
 {
   "SID": "404.000000000000000",
   "LON": "-1.050180000000000",
   "LAT": "53.536090000000000",
   "NAME": "ARMTHORPE EXPRESS",
   "SUPERMARKET": "Tesco"
 },
 {
   "SID": "405.000000000000000",
   "LON": "-2.577500000000000",
   "LAT": "53.262309999999900",
   "NAME": "WEAVERHAM EXPRESS",
   "SUPERMARKET": "Tesco"
 },
 {
   "SID": "406.000000000000000",
   "LON": "-0.389500000000000",
   "LAT": "53.768650000000000",
   "NAME": "HULL BRICKNELL AVENUE EXPRESS",
   "SUPERMARKET": "Tesco"
 },
 {
   "SID": "407.000000000000000",
   "LON": "-2.496400000000000",
   "LAT": "53.262650000000000",
   "NAME": "NORTHWICH",
   "SUPERMARKET": "Tesco"
 },
 {
   "SID": "408.000000000000000",
   "LON": "-1.189180000000000",
   "LAT": "53.485169999999900",
   "NAME": "EDLINGTON EXPRESS",
   "SUPERMARKET": "Tesco"
 },
 {
   "SID": "409.000000000000000",
   "LON": "-1.383150000000000",
   "LAT": "53.435290000000000",
   "NAME": "ROTHERHAM WORTLEY ROAD EXPRESS",
   "SUPERMARKET": "Tesco"
 },
 {
   "SID": "410.000000000000000",
   "LON": "-0.358780000000000",
   "LAT": "53.767870000000000",
   "NAME": "HULL NEWLANDS AVENUE EXPRESS",
   "SUPERMARKET": "Tesco"
 },
 {
   "SID": "411.000000000000000",
   "LON": "-0.413570000000000",
   "LAT": "53.744239999999900",
   "NAME": "HULL ANLABY COMMON EXPRESS",
   "SUPERMARKET": "Tesco"
 },
 {
   "SID": "412.000000000000000",
   "LON": "-1.472350000000000",
   "LAT": "53.412930000000000",
   "NAME": "SHEFFIELD SOUTHEY METRO",
   "SUPERMARKET": "Tesco"
 },
 {
   "SID": "413.000000000000000",
   "LON": "-1.138290000000000",
   "LAT": "53.491030000000000",
   "NAME": "DONCASTER EXTRA",
   "SUPERMARKET": "Tesco"
 },
 {
   "SID": "414.000000000000000",
   "LON": "-1.359780000000000",
   "LAT": "53.431570000000000",
   "NAME": "ROTHERHAM",
   "SUPERMARKET": "Tesco"
 },
 {
   "SID": "415.000000000000000",
   "LON": "-0.349700000000000",
   "LAT": "53.759459999999900",
   "NAME": "HULL BEVERLEY ROAD EXPRESS",
   "SUPERMARKET": "Tesco"
 },
 {
   "SID": "416.000000000000000",
   "LON": "-2.519550000000000",
   "LAT": "53.243139999999900",
   "NAME": "NORTHWICH REGENCY EXPRESS",
   "SUPERMARKET": "Tesco"
 },
 {
   "SID": "417.000000000000000",
   "LON": "-0.382010000000000",
   "LAT": "53.743920000000000",
   "NAME": "HULL ANLABY ROAD EXPRESS",
   "SUPERMARKET": "Tesco"
 },
 {
   "SID": "418.000000000000000",
   "LON": "-0.360250000000000",
   "LAT": "53.751410000000000",
   "NAME": "HULL SPRINGBANK EXPRESS",
   "SUPERMARKET": "Tesco"
 },
 {
   "SID": "419.000000000000000",
   "LON": "-0.352040000000000",
   "LAT": "53.746169999999900",
   "NAME": "HULL ST STEPHENS EXTRA",
   "SUPERMARKET": "Tesco"
 },
 {
   "SID": "420.000000000000000",
   "LON": "-1.482510000000000",
   "LAT": "53.389400000000000",
   "NAME": "SHEFFIELD INFIRMARY",
   "SUPERMARKET": "Tesco"
 },
 {
   "SID": "421.000000000000000",
   "LON": "-1.469440000000000",
   "LAT": "53.388719999999900",
   "NAME": "KELHAM ISLAND EXPRESS",
   "SUPERMARKET": "Tesco"
 },
 {
   "SID": "422.000000000000000",
   "LON": "-0.285560000000000",
   "LAT": "53.767090000000000",
   "NAME": "HULL HOLDERNESS ROAD EXPRESS",
   "SUPERMARKET": "Tesco"
 },
 {
   "SID": "423.000000000000000",
   "LON": "-1.477450000000000",
   "LAT": "53.380420000000000",
   "NAME": "SHEFFIELD WEST STREET EXPRESS",
   "SUPERMARKET": "Tesco"
 },
 {
   "SID": "424.000000000000000",
   "LON": "-1.374290000000000",
   "LAT": "53.403730000000000",
   "NAME": "ROTHERHAM BRINSWORTH LANE EXPRESS",
   "SUPERMARKET": "Tesco"
 },
 {
   "SID": "425.000000000000000",
   "LON": "-1.310150000000000",
   "LAT": "53.418039999999900",
   "NAME": "ROTHERHAM BAWTRY ROAD EXPRESS",
   "SUPERMARKET": "Tesco"
 },
 {
   "SID": "426.000000000000000",
   "LON": "-1.529630000000000",
   "LAT": "53.367400000000000",
   "NAME": "FULWOOD EXPRESS",
   "SUPERMARKET": "Tesco"
 },
 {
   "SID": "427.000000000000000",
   "LON": "-2.124970000000000",
   "LAT": "53.263530000000000",
   "NAME": "MACCLESFIELD HIBEL ROAD",
   "SUPERMARKET": "Tesco"
 },
 {
   "SID": "428.000000000000000",
   "LON": "-1.077830000000000",
   "LAT": "53.477870000000000",
   "NAME": "NEW ROSSINGTON EXPRESS",
   "SUPERMARKET": "Tesco"
 },
 {
   "SID": "429.000000000000000",
   "LON": "-2.127460000000000",
   "LAT": "53.258730000000000",
   "NAME": "MACCLESFIELD METRO",
   "SUPERMARKET": "Tesco"
 },
 {
   "SID": "430.000000000000000",
   "LON": "-1.493560000000000",
   "LAT": "53.369090000000000",
   "NAME": "SHEFFIELD ECCLESALL METRO",
   "SUPERMARKET": "Tesco"
 },
 {
   "SID": "431.000000000000000",
   "LON": "-2.887980000000000",
   "LAT": "53.192619999999900",
   "NAME": "CHESTER",
   "SUPERMARKET": "Tesco"
 },
 {
   "SID": "432.000000000000000",
   "LON": "-0.693860000000000",
   "LAT": "53.590629999999900",
   "NAME": "SCUNTHORPE EXTRA",
   "SUPERMARKET": "Tesco"
 },
 {
   "SID": "433.000000000000000",
   "LON": "-4.620390000000000",
   "LAT": "53.301189999999900",
   "NAME": "HOLYHEAD",
   "SUPERMARKET": "Tesco"
 },
 {
   "SID": "434.000000000000000",
   "LON": "-1.493260000000000",
   "LAT": "53.346640000000000",
   "NAME": "SHEFFIELD ABBEYDALE",
   "SUPERMARKET": "Tesco"
 },
 {
   "SID": "435.000000000000000",
   "LON": "-3.137680000000000",
   "LAT": "53.167090000000000",
   "NAME": "MOLD",
   "SUPERMARKET": "Tesco"
 },
 {
   "SID": "436.000000000000000",
   "LON": "-2.972640000000000",
   "LAT": "53.169020000000000",
   "NAME": "CHESTER BROUGHTON ROAD",
   "SUPERMARKET": "Tesco"
 },
 {
   "SID": "437.000000000000000",
   "LON": "-1.477850000000000",
   "LAT": "53.343400000000000",
   "NAME": "SHEFFIELD WOODSEATS METRO",
   "SUPERMARKET": "Tesco"
 },
 {
   "SID": "438.000000000000000",
   "LON": "-2.446860000000000",
   "LAT": "53.192880000000000",
   "NAME": "MIDDLEWICH WHEELOCK STREET EXPRESS",
   "SUPERMARKET": "Tesco"
 },
 {
   "SID": "439.000000000000000",
   "LON": "-0.652160000000000",
   "LAT": "53.566679999999900",
   "NAME": "ASHBEY EXPRESS",
   "SUPERMARKET": "Tesco"
 },
 {
   "SID": "440.000000000000000",
   "LON": "-4.148040000000000",
   "LAT": "53.210650000000000",
   "NAME": "BANGOR EXTRA",
   "SUPERMARKET": "Tesco"
 },
 {
   "SID": "441.000000000000000",
   "LON": "-1.524190000000000",
   "LAT": "53.321620000000000",
   "NAME": "TOTLEY EXPRESS",
   "SUPERMARKET": "Tesco"
 },
 {
   "SID": "442.000000000000000",
   "LON": "-1.909620000000000",
   "LAT": "53.249110000000000",
   "NAME": "BUXTON EXPRESS",
   "SUPERMARKET": "Tesco"
 },
 {
   "SID": "443.000000000000000",
   "LON": "-2.438260000000000",
   "LAT": "53.180120000000000",
   "NAME": "MIDDLEWICH WARMINGHAM EXPRESS",
   "SUPERMARKET": "Tesco"
 },
 {
   "SID": "444.000000000000000",
   "LON": "-1.211030000000000",
   "LAT": "53.370590000000000",
   "NAME": "SHEFFIELD DINNINGTON",
   "SUPERMARKET": "Tesco"
 },
 {
   "SID": "445.000000000000000",
   "LON": "-3.308190000000000",
   "LAT": "53.117249999999900",
   "NAME": "RUTHIN",
   "SUPERMARKET": "Tesco"
 },
 {
   "SID": "446.000000000000000",
   "LON": "-2.218800000000000",
   "LAT": "53.167929999999900",
   "NAME": "CONGLETON",
   "SUPERMARKET": "Tesco"
 },
 {
   "SID": "447.000000000000000",
   "LON": "-0.494310000000000",
   "LAT": "53.554229999999900",
   "NAME": "BRIGG",
   "SUPERMARKET": "Tesco"
 },
 {
   "SID": "448.000000000000000",
   "LON": "-1.445500000000000",
   "LAT": "53.249749999999900",
   "NAME": "CHESTERFIELD EXPRESS",
   "SUPERMARKET": "Tesco"
 },
 {
   "SID": "449.000000000000000",
   "LON": "-2.439290000000000",
   "LAT": "53.095999999999900",
   "NAME": "CREWE",
   "SUPERMARKET": "Tesco"
 },
 {
   "SID": "450.000000000000000",
   "LON": "-4.272530000000000",
   "LAT": "53.132689999999900",
   "NAME": "CAERNARFON SOUTH ROAD",
   "SUPERMARKET": "Tesco"
 },
 {
   "SID": "451.000000000000000",
   "LON": "-1.421340000000000",
   "LAT": "53.248500000000000",
   "NAME": "CHESTERFIELD",
   "SUPERMARKET": "Tesco"
 },
 {
   "SID": "452.000000000000000",
   "LON": "-1.132450000000000",
   "LAT": "53.315190000000000",
   "NAME": "WORKSOP GATEFORD ROAD",
   "SUPERMARKET": "Tesco"
 },
 {
   "SID": "453.000000000000000",
   "LON": "-1.121050000000000",
   "LAT": "53.312869999999900",
   "NAME": "WORKSOP RAYMOUTH LANE EXPRESS",
   "SUPERMARKET": "Tesco"
 },
 {
   "SID": "454.000000000000000",
   "LON": "-1.263660000000000",
   "LAT": "53.275109999999900",
   "NAME": "CHESTERFIELD CLOWNE",
   "SUPERMARKET": "Tesco"
 },
 {
   "SID": "455.000000000000000",
   "LON": "-2.458460000000000",
   "LAT": "53.082819999999900",
   "NAME": "WISTASTON EXPRESS",
   "SUPERMARKET": "Tesco"
 },
 {
   "SID": "456.000000000000000",
   "LON": "0.035370000000000",
   "LAT": "53.724679999999900",
   "NAME": "WITHERNSEA METRO",
   "SUPERMARKET": "Tesco"
 },
 {
   "SID": "457.000000000000000",
   "LON": "-2.987460000000000",
   "LAT": "53.046109999999900",
   "NAME": "WREXHAM EXTRA",
   "SUPERMARKET": "Tesco"
 },
 {
   "SID": "458.000000000000000",
   "LON": "-0.771460000000000",
   "LAT": "53.397790000000000",
   "NAME": "GAINSBOROUGH",
   "SUPERMARKET": "Tesco"
 },
 {
   "SID": "459.000000000000000",
   "LON": "-2.244790000000000",
   "LAT": "53.089540000000000",
   "NAME": "STOKE-ON-TRENT KIDSGROVE",
   "SUPERMARKET": "Tesco"
 },
 {
   "SID": "460.000000000000000",
   "LON": "-2.302230000000000",
   "LAT": "53.053539999999900",
   "NAME": "AUDLEY EXPRESS",
   "SUPERMARKET": "Tesco"
 },
 {
   "SID": "461.000000000000000",
   "LON": "-2.178970000000000",
   "LAT": "53.027659999999900",
   "NAME": "STOKE-ON-TRENT HANLEY",
   "SUPERMARKET": "Tesco"
 },
 {
   "SID": "462.000000000000000",
   "LON": "-0.077820000000000",
   "LAT": "53.570760000000000",
   "NAME": "GRIMSBY EXTRA",
   "SUPERMARKET": "Tesco"
 },
 {
   "SID": "463.000000000000000",
   "LON": "-0.051390000000000",
   "LAT": "53.570279999999900",
   "NAME": "CLEETHORPES GRIMSBY ROAD EXPRESS",
   "SUPERMARKET": "Tesco"
 },
 {
   "SID": "464.000000000000000",
   "LON": "-2.201250000000000",
   "LAT": "53.009470000000000",
   "NAME": "HARTSHILL EXPRESS",
   "SUPERMARKET": "Tesco"
 },
 {
   "SID": "465.000000000000000",
   "LON": "-2.681570000000000",
   "LAT": "52.968350000000000",
   "NAME": "WHITCHURCH",
   "SUPERMARKET": "Tesco"
 },
 {
   "SID": "466.000000000000000",
   "LON": "-2.208340000000000",
   "LAT": "52.993720000000000",
   "NAME": "STOKE-ON-TRENT",
   "SUPERMARKET": "Tesco"
 },
 {
   "SID": "467.000000000000000",
   "LON": "-7.627900000000000",
   "LAT": "54.342520000000000",
   "NAME": "ENNISKILLEN",
   "SUPERMARKET": "Tesco"
 },
 {
   "SID": "468.000000000000000",
   "LON": "-0.044960000000000",
   "LAT": "53.539340000000000",
   "NAME": "CLEETHORPES EXTRA",
   "SUPERMARKET": "Tesco"
 },
 {
   "SID": "469.000000000000000",
   "LON": "-2.125870000000000",
   "LAT": "52.992060000000000",
   "NAME": "LONGTON MEIR HAY EXPRESS",
   "SUPERMARKET": "Tesco"
 },
 {
   "SID": "470.000000000000000",
   "LON": "-1.008250000000000",
   "LAT": "53.204000000000000",
   "NAME": "NEWARK NEW OLLERTON",
   "SUPERMARKET": "Tesco"
 },
 {
   "SID": "471.000000000000000",
   "LON": "-2.137850000000000",
   "LAT": "52.989249999999900",
   "NAME": "STOKE-ON-TRENT LONGTON EXTRA",
   "SUPERMARKET": "Tesco"
 },
 {
   "SID": "472.000000000000000",
   "LON": "-1.202620000000000",
   "LAT": "53.150799999999900",
   "NAME": "MANSFIELD CHESTERFIELD EXTRA",
   "SUPERMARKET": "Tesco"
 },
 {
   "SID": "473.000000000000000",
   "LON": "-1.245430000000000",
   "LAT": "53.132260000000000",
   "NAME": "SUTTON-IN-ASHFIELD LAKESIDE POINT EXPRESS",
   "SUPERMARKET": "Tesco"
 },
 {
   "SID": "474.000000000000000",
   "LON": "-1.281720000000000",
   "LAT": "53.120539999999900",
   "NAME": "SUTTON-IN-ASHFIELD EXPRESS",
   "SUPERMARKET": "Tesco"
 },
 {
   "SID": "475.000000000000000",
   "LON": "-1.388370000000000",
   "LAT": "53.095419999999900",
   "NAME": "ALFRETON",
   "SUPERMARKET": "Tesco"
 },
 {
   "SID": "476.000000000000000",
   "LON": "-0.335040000000000",
   "LAT": "53.384290000000000",
   "NAME": "MARKET RASEN",
   "SUPERMARKET": "Tesco"
 },
 {
   "SID": "477.000000000000000",
   "LON": "-2.094930000000000",
   "LAT": "52.966299999999900",
   "NAME": "STOKE-ON-TRENT MEIR",
   "SUPERMARKET": "Tesco"
 },
 {
   "SID": "478.000000000000000",
   "LON": "-1.153270000000000",
   "LAT": "53.134439999999900",
   "NAME": "MANSFIELD JUBILEE EXTRA",
   "SUPERMARKET": "Tesco"
 },
 {
   "SID": "479.000000000000000",
   "LON": "-1.190050000000000",
   "LAT": "53.124980000000000",
   "NAME": "MANSFIELD DUKERIES EXPRESS",
   "SUPERMARKET": "Tesco"
 },
 {
   "SID": "480.000000000000000",
   "LON": "-1.245820000000000",
   "LAT": "53.104100000000000",
   "NAME": "KIRKBY IN ASHFIELD EXPRESS",
   "SUPERMARKET": "Tesco"
 },
 {
   "SID": "481.000000000000000",
   "LON": "-4.133890000000000",
   "LAT": "52.928319999999900",
   "NAME": "PORTHMADOG",
   "SUPERMARKET": "Tesco"
 },
 {
   "SID": "482.000000000000000",
   "LON": "-1.462040000000000",
   "LAT": "53.030700000000000",
   "NAME": "ALTON MANOR EXPRESS",
   "SUPERMARKET": "Tesco"
 },
 {
   "SID": "483.000000000000000",
   "LON": "-1.375820000000000",
   "LAT": "53.044229999999900",
   "NAME": "CODNOR EXPRESS",
   "SUPERMARKET": "Tesco"
 },
 {
   "SID": "484.000000000000000",
   "LON": "-1.117600000000000",
   "LAT": "53.098799999999900",
   "NAME": "BLIDWORTH EXPRESS",
   "SUPERMARKET": "Tesco"
 },
 {
   "SID": "485.000000000000000",
   "LON": "-1.359060000000000",
   "LAT": "53.015610000000000",
   "NAME": "HEANOR",
   "SUPERMARKET": "Tesco"
 },
 {
   "SID": "486.000000000000000",
   "LON": "-0.515600000000000",
   "LAT": "53.239899999999900",
   "NAME": "LINCOLN WRAGBY ROAD",
   "SUPERMARKET": "Tesco"
 },
 {
   "SID": "487.000000000000000",
   "LON": "-0.532290000000000",
   "LAT": "53.222839999999900",
   "NAME": "LINCOLN CANWICK ROAD",
   "SUPERMARKET": "Tesco"
 },
 {
   "SID": "488.000000000000000",
   "LON": "-1.195180000000000",
   "LAT": "53.033690000000000",
   "NAME": "NOTTINGHAM HUCKNALL",
   "SUPERMARKET": "Tesco"
 },
 {
   "SID": "489.000000000000000",
   "LON": "-1.872460000000000",
   "LAT": "52.906050000000000",
   "NAME": "UTTOXETER NEW ROAD EXPRESS",
   "SUPERMARKET": "Tesco"
 },
 {
   "SID": "490.000000000000000",
   "LON": "-1.858700000000000",
   "LAT": "52.897959999999900",
   "NAME": "UTTOXETER",
   "SUPERMARKET": "Tesco"
 },
 {
   "SID": "491.000000000000000",
   "LON": "-1.495260000000000",
   "LAT": "52.953670000000000",
   "NAME": "ALLESTREE EXPRESS",
   "SUPERMARKET": "Tesco"
 },
 {
   "SID": "492.000000000000000",
   "LON": "-1.307140000000000",
   "LAT": "52.978079999999900",
   "NAME": "ILKESTON CHALONS WAY EXTRA",
   "SUPERMARKET": "Tesco"
 },
 {
   "SID": "493.000000000000000",
   "LON": "-1.359160000000000",
   "LAT": "52.966619999999900",
   "NAME": "WEST HALLAM EXPRESS",
   "SUPERMARKET": "Tesco"
 },
 {
   "SID": "494.000000000000000",
   "LON": "-1.178810000000000",
   "LAT": "53.002580000000000",
   "NAME": "NOTTINGHAM TOP VALLEY EXTRA",
   "SUPERMARKET": "Tesco"
 },
 {
   "SID": "495.000000000000000",
   "LON": "-1.109510000000000",
   "LAT": "53.005820000000000",
   "NAME": "ARNOLD EXPRESS",
   "SUPERMARKET": "Tesco"
 },
 {
   "SID": "496.000000000000000",
   "LON": "-1.198930000000000",
   "LAT": "52.984800000000000",
   "NAME": "CINDERHILL EXPRESS",
   "SUPERMARKET": "Tesco"
 },
 {
   "SID": "497.000000000000000",
   "LON": "-1.439910000000000",
   "LAT": "52.925069999999900",
   "NAME": "CHADDESDEN EXPRESS",
   "SUPERMARKET": "Tesco"
 },
 {
   "SID": "498.000000000000000",
   "LON": "-1.175290000000000",
   "LAT": "52.979979999999900",
   "NAME": "BASFORD EXPRESS",
   "SUPERMARKET": "Tesco"
 },
 {
   "SID": "499.000000000000000",
   "LON": "-1.141390000000000",
   "LAT": "52.986739999999900",
   "NAME": "WOODTHORPE MANSFIELD ROAD EXPRESS",
   "SUPERMARKET": "Tesco"
 },
 {
   "SID": "500.000000000000000",
   "LON": "-1.541600000000000",
   "LAT": "52.903370000000000",
   "NAME": "DERBY MICKLEOVER",
   "SUPERMARKET": "Tesco"
 },
 {
   "SID": "501.000000000000000",
   "LON": "-1.157060000000000",
   "LAT": "52.975960000000000",
   "NAME": "NOTTINGHAM HUCKNALL ROAD EXPRESS",
   "SUPERMARKET": "Tesco"
 },
 {
   "SID": "502.000000000000000",
   "LON": "-2.116510000000000",
   "LAT": "52.803390000000000",
   "NAME": "STAFFORD EXTRA",
   "SUPERMARKET": "Tesco"
 },
 {
   "SID": "503.000000000000000",
   "LON": "-1.629480000000000",
   "LAT": "52.871589999999900",
   "NAME": "HILTON EXPRESS",
   "SUPERMARKET": "Tesco"
 },
 {
   "SID": "504.000000000000000",
   "LON": "-0.779980000000000",
   "LAT": "53.055230000000000",
   "NAME": "BALDERTON MAIN STREET EXPRESS",
   "SUPERMARKET": "Tesco"
 },
 {
   "SID": "505.000000000000000",
   "LON": "-1.429850000000000",
   "LAT": "52.897620000000000",
   "NAME": "ALVASTON EXPRESS",
   "SUPERMARKET": "Tesco"
 },
 {
   "SID": "506.000000000000000",
   "LON": "-1.107790000000000",
   "LAT": "52.965870000000000",
   "NAME": "NOTTINGHAM CARLTON HILL EXPRESS",
   "SUPERMARKET": "Tesco"
 },
 {
   "SID": "507.000000000000000",
   "LON": "-1.147130000000000",
   "LAT": "52.956319999999900",
   "NAME": "NOTTINGHAM METRO",
   "SUPERMARKET": "Tesco"
 },
 {
   "SID": "508.000000000000000",
   "LON": "-1.089560000000000",
   "LAT": "52.966560000000000",
   "NAME": "NOTTINGHAM CARLTON",
   "SUPERMARKET": "Tesco"
 },
 {
   "SID": "509.000000000000000",
   "LON": "-2.116040000000000",
   "LAT": "52.786760000000000",
   "NAME": "STAFFORD EXPRESS",
   "SUPERMARKET": "Tesco"
 },
 {
   "SID": "510.000000000000000",
   "LON": "-2.723750000000000",
   "LAT": "52.737229999999900",
   "NAME": "SHREWSBURY EXTRA",
   "SUPERMARKET": "Tesco"
 },
 {
   "SID": "511.000000000000000",
   "LON": "-2.739200000000000",
   "LAT": "52.722659999999900",
   "NAME": "SHREWSBURY DITHERINGTON EXPRESS",
   "SUPERMARKET": "Tesco"
 },
 {
   "SID": "512.000000000000000",
   "LON": "-1.258500000000000",
   "LAT": "52.908700000000000",
   "NAME": "NOTTINGHAM TOTON EXTRA",
   "SUPERMARKET": "Tesco"
 },
 {
   "SID": "513.000000000000000",
   "LON": "-1.439500000000000",
   "LAT": "52.869799999999900",
   "NAME": "CHELLASTON EXPRESS",
   "SUPERMARKET": "Tesco"
 },
 {
   "SID": "514.000000000000000",
   "LON": "-1.239270000000000",
   "LAT": "52.904670000000000",
   "NAME": "CHILWELL EXPRESS",
   "SUPERMARKET": "Tesco"
 },
 {
   "SID": "515.000000000000000",
   "LON": "-1.293420000000000",
   "LAT": "52.892699999999900",
   "NAME": "LONG EATON EXPRESS",
   "SUPERMARKET": "Tesco"
 },
 {
   "SID": "516.000000000000000",
   "LON": "-1.268210000000000",
   "LAT": "52.897179999999900",
   "NAME": "NOTTINGHAM LONG EATON EXTRA",
   "SUPERMARKET": "Tesco"
 },
 {
   "SID": "517.000000000000000",
   "LON": "-0.115820000000000",
   "LAT": "53.210410000000000",
   "NAME": "HORNCASTLE",
   "SUPERMARKET": "Tesco"
 },
 {
   "SID": "518.000000000000000",
   "LON": "-2.523220000000000",
   "LAT": "52.698799999999900",
   "NAME": "WELLINGTON HAYGATE ROAD EXPRESS",
   "SUPERMARKET": "Tesco"
 },
 {
   "SID": "519.000000000000000",
   "LON": "-1.633970000000000",
   "LAT": "52.796770000000000",
   "NAME": "BURTON UPON TRENT",
   "SUPERMARKET": "Tesco"
 },
 {
   "SID": "520.000000000000000",
   "LON": "-2.493020000000000",
   "LAT": "52.691279999999900",
   "NAME": "TELFORD EXTRA",
   "SUPERMARKET": "Tesco"
 },
 {
   "SID": "521.000000000000000",
   "LON": "-1.602450000000000",
   "LAT": "52.797789999999900",
   "NAME": "STAPENHILL EXPRESS",
   "SUPERMARKET": "Tesco"
 },
 {
   "SID": "522.000000000000000",
   "LON": "-2.452920000000000",
   "LAT": "52.682229999999900",
   "NAME": "TELFORD HOMEPLUS",
   "SUPERMARKET": "Tesco"
 },
 {
   "SID": "523.000000000000000",
   "LON": "-1.571380000000000",
   "LAT": "52.770170000000000",
   "NAME": "SWADLINCOTE HEARTHCOTE ROAD EXPRESS",
   "SUPERMARKET": "Tesco"
 },
 {
   "SID": "524.000000000000000",
   "LON": "-1.558690000000000",
   "LAT": "52.763150000000000",
   "NAME": "CHURCH GRESLEY EXPRESS",
   "SUPERMARKET": "Tesco"
 },
 {
   "SID": "525.000000000000000",
   "LON": "-1.531420000000000",
   "LAT": "52.767249999999900",
   "NAME": "WOODVILLE EXPRESS",
   "SUPERMARKET": "Tesco"
 },
 {
   "SID": "526.000000000000000",
   "LON": "-1.998480000000000",
   "LAT": "52.692180000000000",
   "NAME": "CANNOCK",
   "SUPERMARKET": "Tesco"
 },
 {
   "SID": "527.000000000000000",
   "LON": "-1.815210000000000",
   "LAT": "52.694690000000000",
   "NAME": "LICHFIELD NETHERSTOWE EXPRESS",
   "SUPERMARKET": "Tesco"
 },
 {
   "SID": "528.000000000000000",
   "LON": "-1.455390000000000",
   "LAT": "52.752640000000000",
   "NAME": "ASHBY DE LA ZOUCH",
   "SUPERMARKET": "Tesco"
 },
 {
   "SID": "529.000000000000000",
   "LON": "-2.016140000000000",
   "LAT": "52.667140000000000",
   "NAME": "GREAT WYRLEY EXPRESS",
   "SUPERMARKET": "Tesco"
 },
 {
   "SID": "530.000000000000000",
   "LON": "-0.411020000000000",
   "LAT": "53.001700000000000",
   "NAME": "SLEAFORD",
   "SUPERMARKET": "Tesco"
 },
 {
   "SID": "531.000000000000000",
   "LON": "-1.821450000000000",
   "LAT": "52.683950000000000",
   "NAME": "LICHFIELD",
   "SUPERMARKET": "Tesco"
 },
 {
   "SID": "532.000000000000000",
   "LON": "-0.666350000000000",
   "LAT": "52.914209999999900",
   "NAME": "GRANTHAM EXPRESS",
   "SUPERMARKET": "Tesco"
 },
 {
   "SID": "533.000000000000000",
   "LON": "-2.179830000000000",
   "LAT": "52.628570000000000",
   "NAME": "CODSHALL EXPRESS",
   "SUPERMARKET": "Tesco"
 },
 {
   "SID": "534.000000000000000",
   "LON": "-1.933040000000000",
   "LAT": "52.645899999999900",
   "NAME": "WALSALL BROWNHILLS",
   "SUPERMARKET": "Tesco"
 },
 {
   "SID": "535.000000000000000",
   "LON": "-1.509240000000000",
   "LAT": "52.704819999999900",
   "NAME": "MEASHAM EXPRESS",
   "SUPERMARKET": "Tesco"
 },
 {
   "SID": "536.000000000000000",
   "LON": "-1.208980000000000",
   "LAT": "52.758670000000000",
   "NAME": "LOUGHBOROUGH PARK ROAD EXTRA",
   "SUPERMARKET": "Tesco"
 },
 {
   "SID": "537.000000000000000",
   "LON": "-2.100550000000000",
   "LAT": "52.611730000000000",
   "NAME": "BUSHBURY EXPRESS",
   "SUPERMARKET": "Tesco"
 },
 {
   "SID": "538.000000000000000",
   "LON": "-1.835040000000000",
   "LAT": "52.638050000000000",
   "NAME": "SHENSTONE EXPRESS",
   "SUPERMARKET": "Tesco"
 },
 {
   "SID": "539.000000000000000",
   "LON": "-2.061740000000000",
   "LAT": "52.607970000000000",
   "NAME": "WEDNESFIELD EXPRESS",
   "SUPERMARKET": "Tesco"
 },
 {
   "SID": "540.000000000000000",
   "LON": "-2.045190000000000",
   "LAT": "52.609560000000000",
   "NAME": "WILLENHALL LICHFIELD ROAD EXPRESS",
   "SUPERMARKET": "Tesco"
 },
 {
   "SID": "541.000000000000000",
   "LON": "-2.127600000000000",
   "LAT": "52.584499999999900",
   "NAME": "WOLVERHAMPTON METRO",
   "SUPERMARKET": "Tesco"
 },
 {
   "SID": "542.000000000000000",
   "LON": "-2.093070000000000",
   "LAT": "52.583520000000000",
   "NAME": "WOLVERHAMPTON WILLENHALL ROAD EXPRESS",
   "SUPERMARKET": "Tesco"
 },
 {
   "SID": "543.000000000000000",
   "LON": "-1.659680000000000",
   "LAT": "52.636150000000000",
   "NAME": "AMINGTON EXPRESS",
   "SUPERMARKET": "Tesco"
 },
 {
   "SID": "544.000000000000000",
   "LON": "-2.043180000000000",
   "LAT": "52.578760000000000",
   "NAME": "WILLENHALL",
   "SUPERMARKET": "Tesco"
 },
 {
   "SID": "545.000000000000000",
   "LON": "-1.979980000000000",
   "LAT": "52.584359999999900",
   "NAME": "WALSALL METRO",
   "SUPERMARKET": "Tesco"
 },
 {
   "SID": "546.000000000000000",
   "LON": "-1.111190000000000",
   "LAT": "52.730420000000000",
   "NAME": "SILEBY EXPRESS",
   "SUPERMARKET": "Tesco"
 },
 {
   "SID": "547.000000000000000",
   "LON": "-0.897710000000000",
   "LAT": "52.778460000000000",
   "NAME": "MELTON MOWBRAY NOTTINGHAM ROAD EXPRESS",
   "SUPERMARKET": "Tesco"
 },
 {
   "SID": "548.000000000000000",
   "LON": "-2.154100000000000",
   "LAT": "52.560630000000000",
   "NAME": "PENN MANOR PENN ROAD EXPRESS",
   "SUPERMARKET": "Tesco"
 },
 {
   "SID": "549.000000000000000",
   "LON": "-2.419380000000000",
   "LAT": "52.535510000000000",
   "NAME": "BRIDGNORTH EXPRESS",
   "SUPERMARKET": "Tesco"
 },
 {
   "SID": "550.000000000000000",
   "LON": "-2.411800000000000",
   "LAT": "52.534680000000000",
   "NAME": "BRIDGNORTH HERMITAGE EXPRESS",
   "SUPERMARKET": "Tesco"
 },
 {
   "SID": "551.000000000000000",
   "LON": "-1.698820000000000",
   "LAT": "52.614120000000000",
   "NAME": "FAZELEY EXPRESS",
   "SUPERMARKET": "Tesco"
 },
 {
   "SID": "552.000000000000000",
   "LON": "-1.885450000000000",
   "LAT": "52.579079999999900",
   "NAME": "STREETLY EXPRESS",
   "SUPERMARKET": "Tesco"
 },
 {
   "SID": "553.000000000000000",
   "LON": "-0.876000000000000",
   "LAT": "52.767229999999900",
   "NAME": "MELTON MOWBRAY",
   "SUPERMARKET": "Tesco"
 },
 {
   "SID": "554.000000000000000",
   "LON": "-1.682480000000000",
   "LAT": "52.600960000000000",
   "NAME": "DOSTHILL EXPRESS",
   "SUPERMARKET": "Tesco"
 },
 {
   "SID": "555.000000000000000",
   "LON": "-1.802480000000000",
   "LAT": "52.570839999999900",
   "NAME": "SUTTON COLDFIELD WHITEHOUSE EXPRESS",
   "SUPERMARKET": "Tesco"
 },
 {
   "SID": "556.000000000000000",
   "LON": "0.333050000000000",
   "LAT": "53.139029999999900",
   "NAME": "SKEGNESS",
   "SUPERMARKET": "Tesco"
 },
 {
   "SID": "557.000000000000000",
   "LON": "-1.983810000000000",
   "LAT": "52.543430000000000",
   "NAME": "SANDWELL STONE CROSS EXPRESS",
   "SUPERMARKET": "Tesco"
 },
 {
   "SID": "558.000000000000000",
   "LON": "-1.825980000000000",
   "LAT": "52.557060000000000",
   "NAME": "SUTTON COLDFIELD BIRMINGHAM ROAD EXPRESS",
   "SUPERMARKET": "Tesco"
 },
 {
   "SID": "559.000000000000000",
   "LON": "-1.859120000000000",
   "LAT": "52.550480000000000",
   "NAME": "SUTTON COLDFIELD NEW OSCOTT EXTRA",
   "SUPERMARKET": "Tesco"
 },
 {
   "SID": "560.000000000000000",
   "LON": "-0.071420000000000",
   "LAT": "52.969209999999900",
   "NAME": "BOSTON",
   "SUPERMARKET": "Tesco"
 },
 {
   "SID": "561.000000000000000",
   "LON": "-1.166120000000000",
   "LAT": "52.665419999999900",
   "NAME": "LEICESTER EXTRA",
   "SUPERMARKET": "Tesco"
 },
 {
   "SID": "562.000000000000000",
   "LON": "-2.099390000000000",
   "LAT": "52.517460000000000",
   "NAME": "DUDLEY HIGHLAND ROAD EXPRESS",
   "SUPERMARKET": "Tesco"
 },
 {
   "SID": "563.000000000000000",
   "LON": "-2.066670000000000",
   "LAT": "52.514080000000000",
   "NAME": "DUDLEY",
   "SUPERMARKET": "Tesco"
 },
 {
   "SID": "564.000000000000000",
   "LON": "-2.170510000000000",
   "LAT": "52.500790000000000",
   "NAME": "KINGSWINFORD EXPRESS",
   "SUPERMARKET": "Tesco"
 },
 {
   "SID": "565.000000000000000",
   "LON": "-1.990840000000000",
   "LAT": "52.518470000000000",
   "NAME": "WEST BROMWICH METRO",
   "SUPERMARKET": "Tesco"
 },
 {
   "SID": "566.000000000000000",
   "LON": "-1.827920000000000",
   "LAT": "52.533890000000000",
   "NAME": "ERDINGTON EXPRESS",
   "SUPERMARKET": "Tesco"
 },
 {
   "SID": "567.000000000000000",
   "LON": "-1.198380000000000",
   "LAT": "52.636699999999900",
   "NAME": "KIRBY FRITH EXPRESS",
   "SUPERMARKET": "Tesco"
 },
 {
   "SID": "568.000000000000000",
   "LON": "-1.152160000000000",
   "LAT": "52.640509999999900",
   "NAME": "LEICESTER FOSSE EXPRESS",
   "SUPERMARKET": "Tesco"
 },
 {
   "SID": "569.000000000000000",
   "LON": "-1.069980000000000",
   "LAT": "52.652709999999900",
   "NAME": "LEICESTER HAMILTON EXTRA",
   "SUPERMARKET": "Tesco"
 },
 {
   "SID": "570.000000000000000",
   "LON": "-1.972410000000000",
   "LAT": "52.496099999999900",
   "NAME": "SMETHWICK METRO",
   "SUPERMARKET": "Tesco"
 },
 {
   "SID": "571.000000000000000",
   "LON": "-2.155300000000000",
   "LAT": "52.471029999999900",
   "NAME": "STOURBRIDGE AUDNAM EXPRESS",
   "SUPERMARKET": "Tesco"
 },
 {
   "SID": "572.000000000000000",
   "LON": "-2.043400000000000",
   "LAT": "52.482239999999900",
   "NAME": "ROWLEY REGIS EXPRESS",
   "SUPERMARKET": "Tesco"
 },
 {
   "SID": "573.000000000000000",
   "LON": "-1.742110000000000",
   "LAT": "52.518279999999900",
   "NAME": "WATER ORTON EXPRESS",
   "SUPERMARKET": "Tesco"
 },
 {
   "SID": "574.000000000000000",
   "LON": "-2.081590000000000",
   "LAT": "52.473640000000000",
   "NAME": "CRADLEY HEATH EXTRA",
   "SUPERMARKET": "Tesco"
 },
 {
   "SID": "575.000000000000000",
   "LON": "-1.163280000000000",
   "LAT": "52.614829999999900",
   "NAME": "ROWLEY FIELDS EXPRESS",
   "SUPERMARKET": "Tesco"
 },
 {
   "SID": "576.000000000000000",
   "LON": "-1.803140000000000",
   "LAT": "52.501350000000000",
   "NAME": "CASTLE BROMWICH EXPRESS",
   "SUPERMARKET": "Tesco"
 },
 {
   "SID": "577.000000000000000",
   "LON": "-1.760450000000000",
   "LAT": "52.506700000000000",
   "NAME": "CASTLE BROMWICH GREEN LANE EXPRESS",
   "SUPERMARKET": "Tesco"
 },
 {
   "SID": "578.000000000000000",
   "LON": "-1.912510000000000",
   "LAT": "52.486390000000000",
   "NAME": "BIRMINGHAM JEWELLERY QUARTER EXPRESS",
   "SUPERMARKET": "Tesco"
 },
 {
   "SID": "579.000000000000000",
   "LON": "-1.771070000000000",
   "LAT": "52.501269999999900",
   "NAME": "BIRMINGHAM CASTLE BROMWICH METRO",
   "SUPERMARKET": "Tesco"
 },
 {
   "SID": "580.000000000000000",
   "LON": "-1.893650000000000",
   "LAT": "52.482399999999900",
   "NAME": "BIRMINGHAM CORPORATION STREET EXPRESS",
   "SUPERMARKET": "Tesco"
 },
 {
   "SID": "581.000000000000000",
   "LON": "-1.898960000000000",
   "LAT": "52.479930000000000",
   "NAME": "BIRMINGHAM CAXTON METRO",
   "SUPERMARKET": "Tesco"
 },
 {
   "SID": "582.000000000000000",
   "LON": "-2.049090000000000",
   "LAT": "52.460810000000000",
   "NAME": "HALESOWEN DUDLEY ROAD EXPRESS",
   "SUPERMARKET": "Tesco"
 },
 {
   "SID": "583.000000000000000",
   "LON": "-1.921440000000000",
   "LAT": "52.474820000000000",
   "NAME": "BIRMINGHAM EDGBASTON",
   "SUPERMARKET": "Tesco"
 },